     3.03           OBSERVATION DATA    M                   RINEX VERSION / TYPE
BNC 2.12            weber               20150716 175615 UTC PGM / RUN BY / DATE
PORTIONS OF THIS HEADER GENERATED BY THE IGS CB FROM        COMMENT
SITELOG cut0_20150507.log                                   COMMENT
Default set of observation types used                       COMMENT
RTCM_3 mgex.igs-ip.net/CUT07                                COMMENT
RTCM_3 mgex.igs-ip.net/CUT07                                COMMENT
CUT07                                                       MARKER NAME
59945M001                                                   MARKER NUMBER
                                                            MARKER TYPE
gnss@curtin.edu.au  CUT                                     OBSERVER / AGENCY
5023K67889          TRIMBLE NETR9       5.01                REC # / TYPE / VERS
4928353386          TRM59800.00     SCIS                    ANT # / TYPE
 -2364337.2699  4870285.5624 -3360809.8398                  APPROX POSITION XYZ
        0.0000        0.0000        0.0000                  ANTENNA: DELTA H/E/N
C    9 C2I L2I S2I C6I L6I S6I C7I L7I S7I                  SYS / # / OBS TYPES
E   12 C1X L1X S1X C5X L5X S5X C7X L7X S7X C8X L8X S8X      SYS / # / OBS TYPES
G   15 C1C L1C S1C C1W L1W S1W C2X L2X S2X C2W L2W S2W C5X  SYS / # / OBS TYPES
       L5X S5X                                              SYS / # / OBS TYPES
J   15 C1C L1C S1C C1W L1W S1W C2X L2X S2X C2W L2W S2W C5X  SYS / # / OBS TYPES
       L5X S5X                                              SYS / # / OBS TYPES
R    6 C1C L1C S1C C2P L2P S2P                              SYS / # / OBS TYPES
S    9 C1C L1C S1C C5I L5I S5I C5Q L5Q S5Q                  SYS / # / OBS TYPES
    10.000                                                  INTERVAL
  2015     7    13    12     0    0.0000000     GPS         TIME OF FIRST OBS
C L2I  0.00000                                              SYS / PHASE SHIFT
C L6I  0.00000                                              SYS / PHASE SHIFT
C L7I  0.00000                                              SYS / PHASE SHIFT
E L1X  0.00000                                              SYS / PHASE SHIFT
E L5X  0.00000                                              SYS / PHASE SHIFT
E L7X  0.00000                                              SYS / PHASE SHIFT
E L8X  0.00000                                              SYS / PHASE SHIFT
G L1C  0.00000                                              SYS / PHASE SHIFT
G L1W  0.00000                                              SYS / PHASE SHIFT
G L2W  0.00000                                              SYS / PHASE SHIFT
G L2X  0.00000                                              SYS / PHASE SHIFT
G L5X  0.00000                                              SYS / PHASE SHIFT
J L1C  0.00000                                              SYS / PHASE SHIFT
J L1W  0.00000                                              SYS / PHASE SHIFT
J L2W  0.00000                                              SYS / PHASE SHIFT
J L2X  0.00000                                              SYS / PHASE SHIFT
J L5X  0.00000                                              SYS / PHASE SHIFT
R L1C  0.00000                                              SYS / PHASE SHIFT
R L2P  0.00000                                              SYS / PHASE SHIFT
S L1C  0.00000                                              SYS / PHASE SHIFT
S L5I  0.00000                                              SYS / PHASE SHIFT
S L5Q  0.00000                                              SYS / PHASE SHIFT
                                                            GLONASS COD/PHS/BIS
  0                                                         GLONASS SLOT / FRQ #
                                                            END OF HEADER
> 2015 07 13 12 00  0.0000000  0 37
G05  23329946.203   122599046.445          45.375                                                    23329949.938    95532735.493          43.375    23329949.867    95532685.491          30.625                                                  
G07  25733324.140   135229365.445          39.812                                                    25733326.996   105373499.094          34.688    25733327.511   105374120.092          20.625                                                  
G12  25783185.711   135492297.156          30.688                                                    25783191.145   105578083.884          33.000    25783192.539   105578001.850          13.875                                                  
G13  20604193.890   108275427.365          51.500                                                                                                    20604195.562    84370562.093          43.875                                                  
G15  22271577.078   117037870.558          48.812                                                    22271579.875    91198370.537          46.312    22271579.629    91198251.549          38.375                                                  
G17  21924690.797   115214393.010          50.500                                                    21924692.773    89777824.182          46.312    21924692.996    89777985.193          39.000                                                  
G20  23399773.117   122966733.332          44.312                                                                                                    23399776.196    95818136.439          25.312                                                  
G24  25002567.109   131390167.092          35.375                                                    25002571.078   102381264.957          39.375    25002571.887   102380825.929          19.875    25002575.597    98115672.236          43.812  
G28  20820788.656   109414349.978          52.125                                                                                                    20820789.449    85257825.070          40.688                                                  
G30  23100774.265   121395899.227          46.312                                                    23100780.226    94594061.260          45.812    23100779.863    94593616.257          33.000    23100783.281    90652783.883          49.812  
R03  23919550.219   128042720.590          38.312    23919556.707    99589581.826          37.875  
R04  20580579.734   110207805.410          52.812    20580581.766    85718031.850          47.375  
R05  21015506.554   112339796.490          46.000    21015511.168    87375748.107          46.312  
R06  24807302.101   132376975.730          40.375    24807304.133   102958936.756          27.375  
R13  24241778.633   129449216.257          32.812    24241785.121   100683118.846          36.188  
R14  20934965.969   111595295.361          45.812    20934972.574    86796823.812          40.875  
R15  21053803.305   112504384.876          49.625    21053808.738    87503934.980          45.125  
R16  24653070.477   131692581.088          37.875    24653078.141   102427682.435          34.312  
R17  22580763.289   120410530.377          43.812    22580769.426    93652661.563          33.188  
R23  23515916.937   125794225.178          42.688    23515924.484    97840301.004          34.688  
R24  21921329.226   117223635.814          43.375    21921333.020    91173311.523          39.625  
E11  27036926.258   142079326.559                    27036928.102   106098476.224                    27036925.008   108866052.291                    27036926.543   107482368.863                  
S27  40097094.562   210711020.035          37.875    40097086.731   157349404.819          40.875                                                  
S28  38017138.250   199780750.835          45.000    38017126.527   149187306.003          44.875                                                  
S29  37588013.797   197526162.366          45.812                                                                                                  
S37  37826726.953   198780128.659          43.375                                                                                                  
J01  44118441.047   231843562.481          34.188                                                    44118444.781   180657339.800          34.688                                                    44118452.055   173129644.408          40.188  
C01  37535605.680   195457981.888          43.312    37535590.418   158825348.914          45.812    37535594.442   151140253.755          46.875  
C02  38189098.524   198860248.885          37.875    38189088.481   161590523.429          42.625    38189091.738   153771640.486          43.000  
C03  36986448.500   192598621.421          43.625    36986436.523   156501550.163          48.125    36986441.597   148928895.237          47.188  
C04  38772496.844   201897804.332          38.625    38772484.340   164059056.115          42.375    38772489.414   156120169.592          40.812  
C05  39750636.554   206991551.691          36.000    39750627.390   168197598.459          40.188    39750632.410   160059006.657          38.188  
C06  39277053.797   204525963.598          39.375    39277041.352   166194124.718          41.312    39277048.773   158152472.714          41.625  
C07  36420485.859   189650731.250          48.688    36420471.067   154106967.979          50.188    36420478.606   146649756.321          48.812  
C08  39673624.679   206590937.993          39.625    39673611.410   167871527.120          40.812    39673619.184   159748715.011          40.312  
C09  37670839.008   196161634.669          45.812    37670826.797   159398056.892          47.000    37670835.156   151685247.333          45.312  
C10  36782930.977   191538801.810          47.000    36782918.883   155641242.507          48.312    36782927.125   148110224.297          47.000  
> 2015 07 13 12 00 10.0000000  0 37
G05  23334374.688   122622322.446          44.125                                                    23334379.418    95550872.642          42.625    23334379.055    95550822.655          30.625                                                  
G07  25737096.484   135249191.965          38.812                                                    25737101.449   105388948.311          34.625    25737100.734   105389569.301          19.000                                                  
G12  25776368.383   135456469.805          34.188                                                    25776374.168   105550166.479          33.125    25776375.153   105550084.453          16.312                                                  
G13  20601901.922   108263382.628          51.375                                                                                                    20601903.652    84361176.590          44.125                                                  
G15  22265662.734   117006792.855          48.812                                                    22265665.883    91174154.155          46.312    22265665.695    91174035.167          38.188                                                  
G17  21919383.352   115186507.437          49.500                                                    21919387.555    89756095.187          46.688    21919387.016    89756256.199          39.000                                                  
G20  23400149.773   122968713.645          43.875                                                                                                    23400152.969    95819679.548          26.500                                                  
G24  24997124.586   131361581.518          35.188                                                    24997131.601   102358990.513          38.688    24997131.766   102358551.499          18.625    24997135.945    98094325.918          43.875  
G28  20824423.726   109433447.987          51.625                                                                                                    20824424.578    85272706.635          40.375                                                  
G30  23103697.469   121411256.144          46.688                                                    23103701.906    94606027.673          45.875    23103701.660    94605582.670          33.125    23103705.137    90664251.703          49.812  
R03  23927067.344   128082952.664          39.188    23927072.543    99620873.419          36.500  
R04  20584949.883   110231212.372          52.500    20584953.437    85736237.278          47.688  
R05  21012560.938   112324049.603          46.500    21012565.902    87363500.530          46.812  
R06  24799463.734   132335171.412          33.875                                                  
R13  24245444.515   129468776.466          32.375    24245447.367   100698332.344          35.375  
R14  20936578.016   111603887.325          45.875    20936584.504    86803506.453          41.000  
R15  21051492.328   112492033.153          50.000    21051497.293    87494328.095          45.188  
R16  24648012.883   131665562.045          35.688    24648020.430   102406667.612          34.312  
R17  22573503.219   120371811.942          44.188    22573508.886    93622547.278          34.000  
R23  23518350.390   125807246.048          41.875    23518358.406    97850428.340          34.188  
R24  21918036.844   117206031.486          43.375    21918039.695    91159619.285          40.375  
E11  27035661.664   142072680.806                    27035663.570   106093513.517                    27035660.570   108860960.123                    27035662.062   107477341.429                  
S27  40096283.250   210706757.285          37.688    40096276.215   157346220.850          41.375                                                  
S28  38016337.734   199776546.345          45.188    38016326.176   149184149.827          44.875                                                  
S29  37587204.781   197521897.528          45.375                                                                                                  
S37  37825925.875   198775937.329          43.188                                                                                                  
J01  44118613.797   231844473.806          35.000                                                    44118618.937   180658049.941          35.375                                                    44118625.332   173130324.963          40.188  
C01  37534793.406   195453753.396          43.375    37534778.438   158821912.914          46.875    37534782.578   151136984.017          46.375  
C02  38188289.914   198856040.381          38.000    38188280.281   161587103.680          43.375    38188283.598   153768386.220          42.625  
C03  36985556.992   192593981.272          43.625    36985545.191   156497779.667          48.312    36985550.324   148925307.191          47.125  
C04  38771692.219   201893614.754          38.312    38771679.656   164055651.740          43.000    38771684.438   156116929.953          42.000  
C05  39749793.367   206987160.982          36.312    39749784.438   168194030.664          39.500    39749789.340   160055611.504          38.812  
C06  39279570.109   204539066.861          39.625    39279557.488   166204772.189          41.375    39279565.320   158162604.982          42.000  
C07  36419883.867   189647596.580          48.188    36419868.840   154104420.811          49.812    36419876.320   146647332.398          48.125  
C08  39669154.414   206567663.403          39.000    39669142.321   167852614.615          41.000    39669150.152   159730717.637          39.688  
C09  37673190.453   196173877.937          46.312    37673177.832   159408005.555          46.125    37673186.601   151694714.604          45.625  
C10  36782102.133   191534488.253          46.875    36782090.273   155637737.394          48.000    36782098.633   148106888.790          47.375  
> 2015 07 13 12 00 20.0000000  0 37
G05  23338806.696   122645613.186          45.312                                                    23338812.070    95569021.265          42.500    23338811.941    95568971.268          29.375                                                  
G07  25740869.813   135269016.122          37.375                                                    25740872.375   105404395.710          33.875    25740872.422   105405016.708          17.375                                                  
G12  25769553.094   135420652.525          37.312                                                    25769557.355   105522256.891          33.875    25769559.043   105522174.881          17.812                                                  
G13  20599618.750   108251384.956          50.812                                                                                                    20599620.656    84351827.759          43.875                                                  
G15  22259755.234   116975745.842          48.000                                                    22259757.445    91149961.696          46.000    22259757.610    91149842.700          38.375                                                  
G17  21914086.766   115158666.520          50.688                                                    21914089.914    89734400.984          47.375    21914089.316    89734561.987          39.375                                                  
G20  23400536.344   122970739.881          43.688                                                                                                    23400538.426    95821258.434          26.375                                                  
G24  24991687.492   131332989.515          38.875                                                    24991691.109   102336711.117          39.375    24991691.332   102336272.102          19.625    24991695.512    98072974.841          43.500  
G28  20828064.735   109452584.285          51.000                                                                                                    20828065.586    85287618.032          40.188                                                  
G30  23106620.312   121426619.279          46.500                                                    23106626.273    94617998.960          45.188    23106625.969    94617553.950          33.000    23106629.504    90675724.174          49.500  
R03  23934581.023   128123176.524          38.125    23934586.457    99652158.657          37.312  
R04  20589332.086   110254681.823          52.500    20589335.879    85754491.284          48.000  
R05  21009631.477   112308385.227          46.688    21009635.504    87351317.133          46.375  
R06  24791638.086   132293396.478          41.812    24791640.117   102893925.696          28.375  
R13  24249101.242   129488325.524          31.000    24249107.496   100713537.185          35.875  
R14  20938189.398   111612483.582          45.312    20938197.883    86810192.434          40.812  
R15  21049183.563   112479694.529          50.375    21049187.941    87484731.403          45.125  
R16  24642956.570   131638549.602          36.875    24642963.414   102385657.921          32.375  
R17  22566245.422   120333117.855          44.625    22566251.793    93592451.917          32.875  
R23  23520796.664   125820337.728          41.625    23520804.797    97860610.738          34.000  
R24  21914758.000   117188498.604          44.188    21914760.852    91145982.616          39.312  
E11  27034404.297   142066074.905                    27034406.711   106088580.542                    27034403.383   108855898.456                    27034405.098   107472344.108                  
S27  40095471.750   210702492.548          37.500    40095464.480   157343036.593          40.812                                                  
S28  38015537.891   199772340.410          45.875    38015525.816   149180992.031          44.625                                                  
S29  37586392.375   197517630.507          45.312                                                                                                  
S37  37825132.032   198771744.037          43.375                                                                                                  
J01  44118783.828   231845364.891          33.125                                                    44118788.031   180658744.296          35.188                                                    44118795.011   173130990.389          40.812  
C01  37533981.094   195449522.058          43.375    37533966.125   158818474.617          46.500    37533970.031   151133712.088          46.688  
C02  38187481.008   198851828.768          37.875    38187471.375   161583681.438          43.312    38187474.750   153765129.547          42.500  
C03  36984665.383   192589338.048          43.625    36984653.640   156494006.665          47.500    36984658.773   148921716.755          46.812  
C04  38770887.468   201889422.254          38.375    38770874.375   164052245.002          42.688    38770879.101   156113688.055          42.000  
C05  39748949.258   206982766.943          36.375    39748940.445   168190460.151          39.500    39748945.465   160052213.767          38.875  
C06  39282086.821   204552168.340          40.188    39282073.609   166215418.219          41.500    39282081.266   158172735.883          41.375  
C07  36419279.906   189644453.353          49.125    36419265.348   154101866.677          50.312    36419272.945   146644901.857          48.000  
C08  39664684.914   206544385.469          38.875    39664671.586   167833699.378          40.312    39664678.305   159712717.628          39.812  
C09  37675541.781   196186128.067          45.625    37675530.273   159417959.790          45.812    37675538.281   151704187.178          45.000  
C10  36781272.375   191530166.927          46.875    36781260.281   155634225.970          47.688    36781268.465   148103547.268          46.375  
> 2015 07 13 12 00 30.0000000  0 37
G05  23343241.750   122668915.359          45.000                                                    23343245.602    95587178.793          43.125    23343245.473    95587128.791          30.812                                                  
G07  25744641.093   135288834.725          35.125                                                    25744644.242   105419838.777          33.875    25744644.465   105420459.753          16.312                                                  
G12  25762739.024   135384841.759          35.500                                                    25762743.051   105494352.497          33.188    25762743.684   105494270.530          15.625                                                  
G13  20597344.203   108239431.071          50.500                                                                                                    20597345.934    84342513.044          44.125                                                  
G15  22253852.391   116944726.339          48.500                                                    22253854.836    91125790.662          46.812    22253854.765    91125671.666          38.688                                                  
G17  21908796.219   115130867.036          50.375                                                    21908798.664    89712739.078          46.000    21908798.594    89712900.068          39.188                                                  
G20  23400930.359   122972808.643          44.312                                                                                                    23400932.676    95822870.467          25.000                                                  
G24  24986243.789   131304387.902          38.125                                                    24986248.403   102314424.187          39.375    24986248.742   102313985.195          18.625    24986252.687    98051616.559          44.125  
G28  20831712.898   109471755.489          51.312                                                                                                    20831713.691    85302556.638          40.625                                                  
G30  23109544.953   121441985.276          46.000                                                    23109549.801    94629972.457          45.125    23109550.023    94629527.447          33.188    23109553.676    90687198.780          50.000  
R03  23942093.930   128163388.619          38.812    23942098.894    99683434.720          37.812  
R04  20593727.273   110278210.117          53.188    20593730.125    85772791.052          48.375  
R05  21006715.086   112292800.071          46.312    21006720.754    87339195.359          46.188  
R06  24783812.023   132251647.421          38.875    24783816.402   102861454.218          31.375  
R13  24252760.359   129507859.997          32.188    24252766.262   100728730.643          36.375  
R14  20939802.860   111621080.501          45.875    20939810.640    86816878.935          40.812  
R15  21046876.047   112467365.402          50.375    21046880.777    87475142.103          44.688  
R16  24637900.383   131611540.470          34.812    24637907.344   102364650.813          31.500  
R17  22558993.680   120294444.182          44.188    22558999.348    93562372.449          33.688  
R23  23523257.531   125833496.745          42.125    23523266.016    97870845.499          34.688  
R24  21911492.992   117171033.667          44.125    21911495.375    91132398.796          39.125  
E11  27033154.281   142059505.513                    27033156.461   106083674.844                    27033153.133   108850864.788                    27033154.722   107467374.422                  
S27  40094660.047   210698221.022          38.188    40094651.746   157339846.817          40.625                                                  
S28  38014735.578   199768127.112          45.500    38014724.324   149177828.581          44.875                                                  
S29  37585574.672   197513356.120          44.875                                                                                                  
S37  37824328.031   198767544.934          43.000                                                                                                  
J01  44118948.531   231846232.542          33.500                                                    44118953.789   180659420.382          35.000                                                    44118960.184   173131638.317          40.312  
C01  37533167.305   195445284.576          43.312    37533152.219   158815031.314          46.312    37533156.476   151130435.400          46.000  
C02  38186671.016   198847610.641          37.812    38186661.676   161580253.886          43.500    38186665.051   153761867.829          42.375  
C03  36983772.414   192584688.439          43.625    36983760.730   156490228.477          47.875    36983765.629   148918121.390          46.125  
C04  38770080.937   201885223.364          38.188    38770068.375   164048833.074          42.812    38770073.274   156110441.222          40.688  
C05  39748104.281   206978366.419          36.125    39748095.117   168186884.378          39.688    39748100.019   160048811.009          38.375  
C06  39284601.336   204565264.654          40.125    39284588.539   166226060.044          41.312    39284596.371   158182862.775          41.125  
C07  36418674.351   189641298.268          49.812    36418659.735   154099302.915          49.500    36418667.156   146642462.142          47.875  
C08  39660211.461   206521101.026          38.625    39660199.836   167814778.866          40.625    39660206.789   159694712.630          40.188  
C09  37677895.445   196198381.671          45.688    37677883.469   159427916.842          46.500    37677891.594   151713662.448          45.625  
C10  36780440.789   191525834.537          46.500    36780428.461   155630705.555          47.312    36780436.879   148100197.199          46.125  
> 2015 07 13 12 00 40.0000000  0 37
G05  23347679.336   122692235.012          44.875                                                    23347683.773    95605349.949          43.000    23347683.586    95605299.958          29.875                                                  
G07  25748412.367   135308654.130          35.312                                                    25748415.984   105435282.429          35.875    25748415.855   105435903.434          17.812                                                  
G12  25755925.196   135349044.168          33.188                                                    25755930.394   105466458.387          33.000    25755930.910   105466376.391          13.875                                                  
G13  20595079.203   108227527.441          51.812                                                                                                    20595080.641    84333237.497          43.875                                                  
G15  22247955.602   116913740.891          48.625                                                    22247958.516    91101646.161          46.375    22247958.562    91101527.171          38.688                                                  
G17  21903515.414   115103115.544          50.812                                                    21903517.157    89691114.541          46.312    21903517.848    89691275.530          39.500                                                  
G20  23401332.664   122974926.380          44.125                                                                                                    23401335.273    95824520.655          27.000                                                  
G24  24980799.149   131275782.930          38.125                                                    24980804.816   102292134.664          40.812    24980805.273   102291695.645          18.312    24980808.867    98030255.767          44.625  
G28  20835368.625   109490967.834          51.375                                                                                                    20835369.535    85317527.297          39.875                                                  
G30  23112470.953   121457360.644          45.875                                                    23112476.211    94641953.250          45.188    23112475.848    94641508.247          32.375    23112479.500    90698680.384          50.000  
R03  23949605.586   128203595.260          38.312    23949608.906    99714706.557          36.812  
R04  20598132.804   110301803.724          52.625    20598135.656    85791141.639          48.500  
R05  21003816.383   112277300.693          46.500    21003819.586    87327140.290          46.625  
R06  24775995.125   132209930.459          36.812    24775998.680   102829007.937          27.812  
R13  24256416.500   129527386.589          30.812    24256424.867   100743917.983          36.812  
R14  20941417.367   111629684.729          45.625    20941425.031    86823571.112          41.312  
R15  21044572.102   112455052.772          50.188    21044576.480    87465565.616          45.688  
R16  24632843.836   131584541.005          33.625    24632852.321   102343651.193          31.500  
R17  22551745.359   120255797.374          44.000    22551751.731    93532313.875          33.688  
R23  23525730.664   125846729.532          42.125    23525739.148    97881137.679          32.875  
R24  21908239.047   117153643.429          44.000    21908243.074    91118873.069          39.500  
E11  27031911.945   142052979.140                    27031914.445   106078801.273                    27031911.305   108845864.075                    27031912.883   107462437.280                  
S27  40093847.500   210693949.570          37.500    40093839.199   157336657.398          41.500                                                  
S28  38013933.407   199763914.243          46.000    38013922.105   149174665.594          44.875                                                  
S29  37584762.172   197509081.114          44.500                                                                                                  
S37  37823537.906   198763345.472          43.188                                                                                                  
J01  44119108.843   231847083.079          34.188                                                    44119115.039   180660083.153          35.125                                                    44119121.726   173132273.477          40.375  
C01  37532353.336   195441047.382          43.312    37532338.426   158811588.235          45.812    37532342.391   151127158.914          46.188  
C02  38185860.797   198843392.482          37.688    38185851.515   161576826.295          43.188    38185854.715   153758606.096          42.375  
C03  36982879.570   192580038.791          43.500    36982867.360   156486450.266          47.875    36982872.375   148914525.991          46.875  
C04  38769274.774   201881024.593          38.375    38769261.679   164045421.219          42.500    38769266.875   156107194.462          41.688  
C05  39747259.375   206973965.643          36.312    39747250.270   168183308.397          38.875    39747254.996   160045408.063          39.188  
C06  39287117.101   204578362.182          40.312    39287103.598   166236702.852          40.812    39287111.371   158192990.610          41.812  
C07  36418067.609   189638137.658          50.188    36418052.289   154096734.665          49.688    36418060.004   146640018.163          48.875  
C08  39655741.719   206497816.327          39.375    39655728.625   167795858.153          40.625    39655736.106   159676707.436          40.625  
C09  37680250.938   196210645.081          45.375    37680238.610   159437881.875          46.188    37680246.734   151723145.300          44.875  
C10  36779607.601   191521497.488          47.188    36779595.801   155627181.351          47.312    36779604.160   148096843.523          47.125  
> 2015 07 13 12 00 50.0000000  0 37
G05  23352121.203   122715579.362          44.812                                                    23352125.992    95623540.351          42.812    23352125.863    95623490.341          30.875                                                  
G07  25752184.797   135328481.555          37.625                                                    25752189.762   105450732.333          34.312    25752189.691   105451353.309          19.000                                                  
G12  25749118.648   135313266.963          36.125                                                    25749122.383   105438580.074          32.188    25749122.840   105438498.071          14.812                                                  
G13  20592824.422   108215681.182          50.688                                                                                                    20592825.801    84324006.646          44.125                                                  
G15  22242066.969   116882796.757          47.812                                                    22242070.059    91077533.852          46.375    22242069.988    91077414.863          38.375                                                  
G17  21898243.875   115075419.267          49.625                                                    21898246.672    89669533.045          46.188    21898246.836    89669694.049          38.875                                                  
G20  23401746.875   122977100.134          43.812                                                                                                    23401748.957    95826214.496          27.312                                                  
G24  24975357.265   131247181.793          38.625                                                    24975362.348   102269848.129          39.625    24975362.219   102269409.112          19.625    24975365.871    98008897.864          44.188  
G28  20839033.852   109510228.421          51.688                                                                                                    20839035.055    85332535.551          40.625                                                  
G30  23115398.734   121472752.493          45.375                                                    23115404.226    94653946.896          45.125    23115404.625    94653501.892          32.625    23115408.160    90710174.296          50.000  
R03  23957118.062   128243803.767          39.188    23957120.328    99745979.829          36.688  
R04  20602552.133   110325469.691          53.500    20602554.867    85809548.510          47.875  
R05  21000933.555   112261894.425          46.812    21000938.168    87315157.647          46.688  
R06  24768184.062   132168253.854          38.125    24768187.973   102796592.767          29.375  
R13  24260074.265   129546912.503          30.812    24260080.637   100759104.769          36.688  
R14  20943033.375   111638303.611          45.375    20943041.039    86830274.696          41.188  
R15  21042271.273   112442763.535          50.000    21042276.707    87456007.339          45.000  
R16  24627794.672   131557558.591          35.500    24627801.394   102322664.840          30.500  
R17  22544504.547   120217184.588          43.812    22544510.918    93502281.748          34.312  
R23  23528220.336   125860043.154          42.688    23528227.648    97891492.696          33.375  
R24  21905003.399   117136335.312          44.625    21905005.078    91105411.219          40.625  
E11  27030679.555   142046502.889                    27030681.875   106073965.121                    27030679.156   108840901.757                    27030680.398   107457538.041                  
S27  40093036.813   210689685.197          37.875    40093026.918   157333472.619          41.688                                                  
S28  38013133.422   199759707.813          45.188    38013122.238   149171507.384          44.875                                                  
S29  37583953.531   197504813.927          45.125                                                                                                  
S37  37822734.015   198759153.815          43.688                                                                                                  
J01  44119268.188   231847923.715          33.688                                                    44119274.207   180660738.198          35.000                                                    44119281.012   173132901.231          40.375  
C01  37531540.766   195436817.508          43.312    37531526.207   158808151.125          46.000    37531530.348   151123888.120          46.312  
C02  38185052.508   198839181.351          37.688    38185042.699   161573404.416          43.875    38185045.898   153755349.800          44.125  
C03  36981987.945   192575396.204          43.625    36981976.320   156482677.783          47.875    36981981.336   148910936.053          47.188  
C04  38768470.305   201876832.908          38.312    38768456.742   164042015.147          43.000    38768461.937   156103953.193          41.625  
C05  39746415.695   206969571.858          36.312    39746406.121   168179738.097          39.812    39746411.258   160042010.525          38.312  
C06  39289633.640   204591467.984          40.375    39289620.254   166247352.387          41.688    39289628.086   158203124.852          40.875  
C07  36417460.781   189634978.626          49.500    36417446.106   154094167.693          49.500    36417453.820   146637575.402          48.812  
C08  39651272.094   206474538.773          39.500    39651258.063   167776943.227          40.188    39651265.719   159658707.749          40.375  
C09  37682610.055   196222925.448          46.000    37682596.492   159447860.684          46.500    37682604.266   151732641.271          45.000  
C10  36778774.610   191517162.800          47.312    36778762.926   155623659.068          47.188    36778771.519   148093491.675          46.312  
> 2015 07 13 12 01  0.0000000  0 37
G05  23356568.703   122738945.258          44.500                                                    23356572.321    95641747.537          43.188    23356572.074    95641697.534          30.125                                                  
G07  25755957.867   135348314.046          35.875                                                    25755962.891   105466186.211          33.688    25755963.348   105466807.164          16.875                                                  
G12  25742313.844   135277507.102          35.188                                                    25742317.754   105410715.284          32.625    25742318.211   105410633.287          14.812                                                  
G13  20590580.899   108203889.429          51.188                                                                                                    20590582.629    84314818.271          44.375                                                  
G15  22236185.867   116851891.034          48.625                                                    22236188.723    91053451.482          46.375    22236188.886    91053332.493          38.625                                                  
G17  21892984.406   115047775.412          50.625                                                    21892986.266    89647992.373          47.000    21892986.898    89648153.391          39.188                                                  
G20  23402170.570   122979326.965          44.312                                                                                                    23402172.477    95827949.692          27.000                                                  
G24  24969915.851   131218581.613          38.688                                                    24969919.703   102247562.318          40.688    24969919.398   102247123.307          19.000    24969923.168    97987540.635          44.125  
G28  20842707.133   109529534.211          51.312                                                                                                    20842708.805    85347579.025          39.875                                                  
G30  23118330.680   121488157.873          45.188                                                    23118336.113    94665951.087          44.875    23118336.453    94665506.080          32.125    23118340.281    90721678.312          49.875  
R03  23964626.469   128284011.024          38.125    23964632.840    99777252.103          37.000  
R04  20606984.016   110349205.029          53.000    20606987.688    85828009.328          48.312  
R05  20998068.570   112246578.295          46.000    20998073.418    87303245.108          46.625  
R06  24760380.203   132126613.778          42.375    24760384.933   102764205.981          33.625  
R13  24263730.609   129566434.649          32.812    24263735.926   100774288.679          36.000  
R14  20944651.820   111646933.797          44.500    20944660.422    86836987.058          40.812  
R15  21039975.453   112430494.610          50.312    21039981.238    87446464.850          45.312  
R16  24622745.929   131530590.037          36.312    24622752.652   102301689.340          32.375  
R17  22537268.664   120178603.409          43.812    22537275.508    93472274.218          33.125  
R23  23530725.344   125873434.797          43.875    23530731.012    97901908.395          33.375  
R24  21901780.719   117119106.266          43.688    21901785.332    91092010.860          40.000  
E11  27029455.844   142040073.865                    27029458.516   106069164.230                    27029455.984   108835975.631                    27029457.106   107452674.532                  
S27  40092224.625   210685423.974          38.375    40092216.114   157330290.414          40.312                                                  
S28  38012334.578   199755506.229          45.625    38012323.652   149168352.956          44.688                                                  
S29  37583140.969   197500551.186          44.688                                                                                                  
S37  37821935.031   198754964.046          43.312                                                                                                  
J01  44119426.078   231848751.364          33.500                                                    44119432.215   180661383.125          35.125                                                    44119438.668   173133519.292          40.188  
C01  37530729.789   195432591.966          43.375    37530714.703   158804717.546          46.000    37530718.902   151120620.684          46.375  
C02  38184244.273   198834974.305          37.812    38184234.582   161569985.856          42.875    38184237.781   153752096.657          42.000  
C03  36981096.969   192570757.789          43.625    36981085.285   156478908.702          47.625    36981090.360   148907349.345          46.312  
C04  38767665.688   201872645.514          38.375    38767652.301   164038612.538          43.000    38767657.320   156100715.233          41.875  
C05  39745572.610   206965182.035          36.125    39745563.446   168176171.018          40.125    39745568.406   160038616.044          37.188  
C06  39292151.289   204604579.146          40.375    39292138.254   166258006.281          41.625    39292145.851   158213263.230          40.625  
C07  36416853.836   189631818.229          48.000    36416838.574   154091599.614          50.312    36416846.289   146635131.589          48.125  
C08  39646802.492   206451265.304          39.312    39646789.164   167758031.622          40.500    39646796.762   159640711.222          39.812  
C09  37684970.945   196235219.749          45.875    37684957.676   159457850.818          46.000    37684966.449   151742148.015          44.875  
C10  36777942.586   191512827.658          47.688    36777930.668   155620136.396          47.125    36777938.910   148090139.459          46.500  
> 2015 07 13 12 01 10.0000000  0 37
G05  23361017.640   122762328.989          44.125                                                    23361021.492    95659968.619          42.875    23361021.656    95659918.624          30.188                                                  
G07  25759734.914   135368147.782          34.812                                                    25759737.418   105481641.085          32.625    25759737.992   105482262.069          15.625                                                  
G12  25735509.750   135241761.124          37.500                                                    25735515.242   105382861.325          35.500    25735515.289   105382779.315          16.312                                                  
G13  20588347.039   108192148.550          51.000                                                                                                    20588348.535    84305669.541          44.375                                                  
G15  22230311.610   116821020.086          47.812                                                    22230314.523    91029396.210          46.875    22230314.277    91029277.216          38.375                                                  
G17  21887733.547   115020180.363          51.000                                                    21887735.816    89626489.759          47.500    21887735.629    89626650.771          39.312                                                  
G20  23402603.516   122981603.052          44.312                                                                                                    23402605.598    95829723.280          27.125                                                  
G24  24964471.844   131189978.732          39.375                                                    24964477.043   102225274.426          39.625    24964477.266   102224835.405          20.125    24964480.449    97966181.399          43.500  
G28  20846388.992   109548881.330          51.125                                                                                                    20846390.605    85362654.698          40.375                                                  
G30  23121263.086   121503573.093          45.875                                                    23121269.926    94677962.944          45.375    23121269.680    94677517.937          32.688    23121273.567    90733189.669          50.188  
R03  23972138.063   128324213.046          37.500    23972142.090    99808520.380          36.000  
R04  20611429.804   110373005.590          53.125    20611432.774    85846520.871          48.188  
R05  20995219.898   112231348.568          46.812    20995224.629    87291399.773          46.375  
R06  24752583.125   132085007.445          35.500    24752588.676   102731845.681          22.500  
R13  24267384.899   129585949.343          32.625    24267390.567   100789466.733          36.812  
R14  20946271.735   111655571.836          43.875    20946280.570    86843705.529          40.500  
R15  21037682.555   112418242.232          50.188    21037688.105    87436935.234          45.625  
R16  24617697.586   131503631.743          35.812    24617705.953   102280721.749          31.875  
R17  22530039.555   120140050.274          44.812    22530046.043    93442288.487          33.375  
R23  23533242.438   125886900.654          44.375    23533248.926    97912381.831          33.312  
R24  21898573.211   117101952.712          43.688    21898576.766    91078669.225          39.812  
E11  27028240.734   142033688.346                    27028243.570   106064395.847                    27028240.805   108831082.854                    27028242.117   107447843.957                  
S27  40091413.156   210681163.958          38.312    40091405.347   157327109.357          41.000                                                  
S28  38011534.422   199751305.356          46.812    38011522.793   149165198.821          44.688                                                  
S29  37582329.281   197496289.097          45.312                                                                                                  
S37  37821138.391   198750776.887          43.875                                                                                                  
J01  44119580.578   231849562.474          34.000                                                    44119586.891   180662015.164          34.812                                                    44119593.285   173134124.993          40.125  
C01  37529918.367   195428367.199          43.312    37529903.164   158801284.582          46.312    37529907.246   151117353.832          46.625  
C02  38183436.648   198830767.654          37.688    38183426.723   161566567.615          43.188    38183429.980   153748843.818          42.625  
C03  36980206.789   192566119.803          43.625    36980194.754   156475139.970          47.688    36980199.711   148903762.965          46.875  
C04  38766861.391   201868458.642          38.188    38766848.594   164035210.369          43.000    38766853.609   156097477.681          42.625  
C05  39744730.539   206960792.504          36.000    39744720.496   168172604.175          39.500    39744725.692   160035221.798          37.188  
C06  39294669.601   204617691.880          39.875    39294656.508   166268661.450          41.375    39294664.519   158223402.823          41.375  
C07  36416245.890   189628652.835          48.000    36416230.863   154089027.467          50.125    36416238.402   146632683.900          48.000  
C08  39642332.242   206427992.230          38.812    39642319.324   167739120.348          40.500    39642326.864   159622715.011          40.500  
C09  37687334.274   196247524.345          46.125    37687320.652   159467849.318          46.188    37687329.133   151751662.710          45.688  
C10  36777109.274   191508488.228          47.000    36777097.180   155616610.266          47.812    36777105.480   148086783.942          46.688  
> 2015 07 13 12 01 20.0000000  0 37
G05  23365470.945   122785733.211          44.625                                                    23365475.149    95678205.679          42.875    23365475.723    95678155.677          30.375                                                  
G07  25763508.453   135387985.744          33.688                                                    25763512.715   105497099.191          28.875    25763512.820   105497720.123          15.625                                                  
G12  25728711.422   135206031.707          35.688                                                    25728717.090   105355020.325          33.875    25728716.785   105354938.283          16.312                                                  
G13  20586122.773   108180461.419          51.500                                                                                                    20586124.211    84296562.683          44.312                                                  
G15  22224444.000   116790186.832          49.500                                                    22224447.265    91005370.306          46.312    22224446.961    91005251.311          38.688                                                  
G17  21882491.914   114992637.017          50.688                                                    21882495.649    89605027.420          48.125    21882494.992    89605188.424          39.875                                                  
G20  23403046.601   122983931.155          43.625                                                                                                    23403048.859    95831537.385          27.188                                                  
G24  24959028.766   131161375.609          36.188                                                    24959032.969   102202986.381          38.688    24959034.012   102202547.359          19.625    24959037.840    97944822.016          43.875  
G28  20850078.945   109568272.503          51.000                                                                                                    20850080.617    85377764.705          40.312                                                  
G30  23124200.726   121519000.935          45.312                                                    23124205.867    94689984.629          45.188    23124205.504    94689539.616          32.625    23124209.508    90744710.450          50.312  
R03  23979646.617   128364412.344          38.125    23979651.699    99839786.515          37.375  
R04  20615886.906   110396874.272          53.188    20615889.289    85865085.402          48.625  
R05  20992387.156   112216208.115          46.312    20992391.769    87279623.862          46.625  
R06  24744794.687   132043437.365          39.188    24744798.715   102699513.346          28.125  
R13  24271038.148   129605459.409          32.375    24271043.230   100804641.198          35.688  
R14  20947895.390   111664220.423          44.875    20947903.406    86850432.210          40.688  
R15  21035394.172   112406009.085          50.000    21035399.137    87427420.574          46.000  
R16  24612653.016   131476686.387          32.000    24612662.438   102259764.240          31.375  
R17  22522815.930   120101528.544          43.875    22522821.949    93412327.196          33.625  
R23  23535773.977   125900443.339          43.875    23535780.230    97922915.041          33.812  
R24  21895381.149   117084877.498          43.875    21895384.000    91065388.502          39.188  
E11  27027034.570   142027349.192                    27027037.321   106059662.072                    27027034.414   108826225.580                    27027035.668   107443048.428                  
S27  40090603.422   210676906.948          38.125    40090594.769   157323930.493          40.875                                                  
S28  38010735.125   199747106.830          45.000    38010723.754   149162046.585          44.688                                                  
S29  37581518.313   197492027.971          45.625                                                                                                  
S37  37820345.156   198746590.253          43.188                                                                                                  
J01  44119732.875   231850359.667          34.188                                                    44119738.309   180662636.348          34.375                                                    44119744.879   173134720.307          40.500  
C01  37529107.758   195424145.880          43.375    37529092.848   158797854.412          46.188    37529097.106   151114089.640          46.312  
C02  38182629.586   198826564.185          37.625    38182619.660   161563151.964          43.375    38182622.801   153745593.440          43.312  
C03  36979316.711   192561485.064          43.625    36979304.852   156471373.857          47.500    36979309.750   148900179.096          46.688  
C04  38766057.422   201864275.047          38.312    38766044.859   164031810.852          42.812    38766049.992   156094242.670          41.625  
C05  39743886.719   206956406.042          36.125    39743877.965   168169039.829          39.875    39743883.277   160031829.928          38.688  
C06  39297188.734   204630808.987          39.688    39297175.641   166279320.165          40.688    39297183.180   158233545.805          41.500  
C07  36415637.531   189625485.128          49.312    36415622.387   154086453.452          49.688    36415630.102   146630234.434          47.625  
C08  39637864.024   206404722.384          38.812    39637850.578   167720211.688          40.500    39637858.469   159604721.294          40.500  
C09  37689698.258   196259841.929          45.875    37689685.871   159477858.378          46.375    37689694.172   151761187.471          45.312  
C10  36776275.609   191504147.366          46.875    36776263.574   155613082.963          47.500    36776272.051   148083427.328          46.188  
> 2015 07 13 12 01 30.0000000  0 37
G05  23369929.383   122809159.198          44.625                                                    23369933.117    95696459.678          42.625    23369933.106    95696409.685          30.875                                                  
G07  25767284.226   135407829.548          33.500                                                    25767287.785   105512561.954          28.500    25767288.594   105513182.846          13.875                                                  
G12  25721915.336   135170320.482          32.000                                                    25721921.356   105327193.492          33.625    25721921.227   105327111.473          14.812                                                  
G13  20583909.071   108168829.616          51.125                                                                                                    20583910.566    84287498.948          44.500                                                  
G15  22218583.836   116759392.910          48.000                                                    22218586.574    90981375.050          46.312    22218586.504    90981256.058          38.125                                                  
