#
# Header Description:
#
# GEA Version: 2.0.0
#
# Raw,utcTimeMillis,TimeNanos,LeapSecond,TimeUncertaintyNanos,FullBiasNanos,BiasNanos,BiasUncertaintyNanos,DriftNanosPerSecond,DriftUncertaintyNanosPerSecond,HardwareClockDiscontinuityCount,Svid,TimeOffsetNanos,State,ReceivedSvTimeNanos,ReceivedSvTimeUncertaintyNanos,Cn0DbHz,PseudorangeRateMetersPerSecond,PseudorangeRateUncertaintyMetersPerSecond,AccumulatedDeltaRangeState,AccumulatedDeltaRangeMeters,AccumulatedDeltaRangeUncertaintyMeters,CarrierFrequencyHz,CarrierCycles,CarrierPhase,CarrierPhaseUncertainty,MultipathIndicator,SnrInDb,ConstellationType,AgcDb,BasebandCn0DbHz,FullInterSignalBiasNanos,FullInterSignalBiasUncertaintyNanos,SatelliteInterSignalBiasNanos,SatelliteInterSignalBiasUncertaintyNanos,CodeType,ChipsetElapsedRealtimeNanos
#
Raw,1701102838999,13565000000,,,-1385138043434900974,0.0,7.44195714062926,,,194,6,0.0,16431,146056923054379,12,45.76658248901367,-19.82357303133368,0.15,17,-270.37472672986195,0.0959202561416549,1575420030,,,,0,,1,,41.85658264160156,0.43655744850213174,1.0,0.43655744850213174,1.0,C,665823412033000
Raw,1701102838999,13565000000,,,-1385138043434900974,0.0,7.44195714062926,,,194,11,0.0,16431,146056920773814,13,42.6495246887207,-360.79173829953584,0.15,25,-4726.2921764878265,0.0010504841338843107,1575420030,,,,0,,1,,38.739524841308594,-0.20372681261465636,1.0,-0.20372681261465636,1.0,C,665823412033000
Raw,1701102838999,13565000000,,,-1385138043434900974,0.0,7.44195714062926,,,194,12,0.0,16431,146056932616815,15,41.32622528076172,185.24242854976808,0.15,29,2445.3379783074265,0.0012233605375513434,1575420030,,,,0,,1,,37.41622543334961,-0.5238689680255122,1.0,-0.5238689680255122,1.0,C,665823412033000
Raw,1701102838999,13565000000,,,-1385138043434900974,0.0,7.44195714062926,,,194,19,0.0,16385,146056920758641,13,42.73039627075195,739.1320563082754,0.15,16,1676.438484924296,340282346638528860000000000000000000000,1575420030,,,,0,,1,,38.820396423339844,0.0,1.0,0.0,1.0,C,665823412033000
Raw,1701102838999,13565000000,,,-1385138043434900974,0.0,7.44195714062926,,,194,24,0.0,16431,146056926783260,18,38.63288879394531,671.8690332271613,0.15,17,8964.977711419178,0.09681493338485038,1575420030,,,,0,,1,,34.7228889465332,0.23283063588747532,1.0,0.23283063588747532,1.0,C,665823412033000
Raw,1701102838999,13565000000,,,-1385138043434900974,0.0,7.44195714062926,,,194,25,0.0,16419,146056930672622,20,37.60563659667969,-263.48443335057516,0.15,17,-3520.642311824826,0.0970243537221921,1575420030,,,,0,,1,,33.69563674926758,-1.6007106776444318,1.0,-1.6007106776444318,1.0,C,665823412033000
Raw,1701102838999,13565000000,,,-1385138043434900974,0.0,7.44195714062926,,,194,32,0.0,16419,146056924611728,15,41.399837493896484,-6.236305114635893,0.15,17,-91.08440463234696,0.09635987264391756,1575420030,,,,0,,1,,37.489837646484375,-0.05820765897186883,1.0,-0.05820765897186883,1.0,C,665823412033000
Raw,1701102838999,13565000000,,,-1385138043434900974,0.0,7.44195714062926,,,194,6,0.0,81921,146056923054301,36,26.46259117126465,-19.738980374244065,1.6677039905961513,16,-336.058502132218,340282346638528860000000000000000000000,1176450050,,,,0,,1,,22.702590942382812,2.2409949884661438,7.671281903963041,2.2409949884661438,1.0,Q,665823412033000
Raw,1701102838999,13565000000,,,-1385138043434900974,0.0,7.44195714062926,,,194,11,0.0,81921,146056920773744,7,35.046478271484375,-360.6867643334456,0.5454700792947009,25,-5943.784258332226,0.003128156065940857,1176450050,,,,0,,1,,31.28647804260254,0.0,7.671281903963041,0.0,1.0,Q,665823412033000
Raw,1701102838999,13565000000,,,-1385138043434900974,0.0,7.44195714062926,,,194,24,0.0,81921,146056926783195,6,39.10774230957031,672.0018866426872,0.15,25,11044.484120472465,0.0020787459798157215,1176450050,,,,0,,1,,35.34774398803711,2.6484485142856093,7.671281903963041,2.6484485142856093,1.0,Q,665823412033000
Raw,1701102838999,13565000000,,,-1385138043434900974,0.0,7.44195714062926,,,194,25,0.0,81921,146056930672560,12,31.150737762451172,-263.53255777918537,0.7188402132234688,16,-4347.470928600642,340282346638528860000000000000000000000,1176450050,,,,0,,1,,27.390737533569336,0.1455191536427875,7.671281903963041,0.1455191536427875,1.0,Q,665823412033000
Raw,1701102838999,13565000000,,,-1385138043434900974,0.0,7.44195714062926,,,194,32,0.0,81921,146056924611681,13,34.86357116699219,-6.718624595733594,0.5507879410217278,25,-116.96597655889806,0.0031947263050824404,1176450050,,,,0,,1,,31.103572845458984,9.196810540047126,7.671281903963041,9.196810540047126,1.0,Q,665823412033000
Raw,1701102838999,13565000000,,,-1385138043434900974,0.0,7.44195714062926,,,194,12,0.0,32867,70438933315966,38,38.41958236694336,-194.61687638128012,0.15,17,-2557.7816864525707,0.09528284307831318,1601437440,,,,0,,3,,34.50958251953125,54.016709327697754,2.0000000474974513,54.016709327697754,2.0000000474974513,C,665823412033000
Raw,1701102838999,13565000000,,,-1385138043434900974,0.0,7.44195714062926,,,194,11,0.0,32867,70438931609300,33,45.5737190246582,474.22640156192733,0.15,17,6241.62911524301,0.09434584766535475,1602000000,,,,0,,3,,41.663719177246094,54.016709327697754,2.0000000474974513,54.016709327697754,2.0000000474974513,C,665823412033000
Raw,1701102838999,13565000000,,,-1385138043434900974,0.0,7.44195714062926,,,194,21,0.0,32867,70438932179401,33,40.80424880981445,-46.755191481246754,0.15,17,-623.2867288571691,0.09471273637425082,1604249980,,,,0,,3,,36.894248962402344,54.016709327697754,2.0000000474974513,54.016709327697754,2.0000000474974513,C,665823412033000
Raw,1701102838999,13565000000,,,-1385138043434900974,0.0,7.44195714062926,,,194,10,0.0,81955,146042867336133,9,38.478816986083984,260.92812982276655,0.15,17,3102.2780719213174,0.09773327052165721,1561097980,,,,0,,5,,34.568817138671875,15.425030142068863,4.8356409757302465,15.425030142068863,1.5000000237487257,I,665823412033000
Raw,1701102838999,13565000000,,,-1385138043434900974,0.0,7.44195714062926,,,194,19,0.0,16384,146042913902651,1000000000,23.86760139465332,588.6707575988071,299792458,16,1369.435304977477,340282346638528860000000000000000000000,1561097980,,,,0,,5,,19.95760154724121,15.425030142068863,4.8356409757302465,15.425030142068863,1.5000000237487257,I,665823412033000
Raw,1701102838999,13565000000,,,-1385138043434900974,0.0,7.44195714062926,,,194,22,0.0,81955,146042914682855,12,34.695091247558594,155.96648454054355,0.5669212579071279,16,951.3898001407655,340282346638528860000000000000000000000,1561097980,,,,0,,5,,30.785091400146484,15.425030142068863,4.8356409757302465,15.425030142068863,1.5000000237487257,I,665823412033000
Raw,1701102838999,13565000000,,,-1385138043434900974,0.0,7.44195714062926,,,194,27,0.0,81955,146042922505250,8,39.468257904052734,-376.7767171508426,0.15,16,782405.5951710617,340282346638528860000000000000000000000,1561097980,,,,0,,5,,35.558258056640625,15.425030142068863,4.8356409757302465,15.425030142068863,1.5000000237487257,I,665823412033000
Raw,1701102838999,13565000000,,,-1385138043434900974,0.0,7.44195714062926,,,194,28,0.0,81955,146042923714280,6,44.83882522583008,147.9754777017489,0.15,17,263720.87015691644,0.0968436735848986,1561097980,,,,0,,5,,40.92882537841797,15.425030142068863,4.8356409757302465,15.425030142068863,1.5000000237487257,I,665823412033000
Raw,1701102838999,13565000000,,,-1385138043434900974,0.0,7.44195714062926,,,194,36,0.0,81955,146042916936751,8,40.044288635253906,-410.2989944182441,0.15,17,782044.6565888856,0.09745067011603122,1561097980,,,,0,,5,,36.1342887878418,15.425030142068863,4.8356409757302465,15.425030142068863,1.5000000237487257,I,665823412033000
Raw,1701102838999,13565000000,,,-1385138043434900974,0.0,7.44195714062926,,,194,37,0.0,81955,146042922472042,7,41.04082107543945,489.7036199759573,0.15,17,267375.2058548256,0.09729556730520879,1561097980,,,,0,,5,,37.130821228027344,15.425030142068863,4.8356409757302465,15.425030142068863,1.5000000237487257,I,665823412033000
Raw,1701102838999,13565000000,,,-1385138043434900974,0.0,7.44195714062926,,,194,46,0.0,81955,146042927172807,8,39.72513961791992,-59.532845021781526,0.15,17,785793.9347193916,0.09750422512219255,1561097980,,,,0,,5,,35.81513977050781,15.425030142068863,4.8356409757302465,15.425030142068863,1.5000000237487257,I,665823412033000
Raw,1701102838999,13565000000,,,-1385138043434900974,0.0,7.44195714062926,,,194,22,0.0,81959,146042914682935,12,39.819068908691406,156.81905719046165,0.15,25,1625.5017023520627,0.0019152923487126827,1176450050,,,,0,,5,,36.0590705871582,35.12051118152577,8.171281927711767,35.12051118152577,1.5000000237487257,Q,665823412033000
Raw,1701102838999,13565000000,,,-1385138043434900974,0.0,7.44195714062926,,,194,27,0.0,81959,146042922505311,21,30.253448486328125,-376.2904627436317,0.7613186698953203,16,-5846.081982255766,340282346638528860000000000000000000000,1176450050,,,,0,,5,,26.49344825744629,27.67254668456183,8.171281927711767,27.67254668456183,1.5000000237487257,Q,665823412033000
Raw,1701102838999,13565000000,,,-1385138043434900974,0.0,7.44195714062926,,,194,28,0.0,81959,146042923714340,34,27.47222137451172,148.3920334853707,1.2903114790763919,16,2126.3048587899857,340282346638528860000000000000000000000,1176450050,,,,0,,5,,23.712221145629883,27.78896118237433,8.171281927711767,27.78896118237433,1.5000000237487257,Q,665823412033000
Raw,1701102838999,13565000000,,,-1385138043434900974,0.0,7.44195714062926,,,194,36,0.0,81959,146042916936767,7,41.73429489135742,-410.1884309292841,0.15,25,-6363.384984010782,0.0015362921403720975,1176450050,,,,0,,5,,37.97429656982422,-0.045144423887897744,8.171281927711767,-0.045144423887897744,1.5000000237487257,Q,665823412033000
Raw,1701102838999,13565000000,,,-1385138043434900974,0.0,7.44195714062926,,,194,37,0.0,81959,146042922472076,26,29.7340030670166,489.8881423955718,0.7846716096413413,16,7552.052323001276,340282346638528860000000000000000000000,1176450050,,,,0,,5,,25.974002838134766,9.277065645104923,8.171281927711767,9.277065645104923,1.5000000237487257,Q,665823412033000
Raw,1701102838999,13565000000,,,-1385138043434900974,0.0,7.44195714062926,,,194,46,0.0,81959,146042927172887,12,39.84428024291992,-59.4804560257989,0.15,25,-882.8209616980472,0.0019097408512607217,1176450050,,,,0,,5,,36.08428192138672,52.81723841416391,8.171281927711767,52.81723841416391,1.5000000237487257,Q,665823412033000
Raw,1701102838999,13565000000,,,-1385138043434900974,0.0,7.44195714062926,,,194,3,0.0,85026,146056912786007,18,38.844966888427734,-110.97373948916197,0.15,25,-989.1564236366767,0.0016278611728921533,1575420030,,,,0,,6,,34.934967041015625,-4.569301381707191,1.5000000237487257,-4.569301381707191,1.5000000237487257,C,665823412033000
Raw,1701102838999,13565000000,,,-1385138043434900974,0.0,7.44195714062926,,,194,5,0.0,85026,146056921577196,48,26.77010154724121,404.66441454098003,0.9216612507893291,16,4768.710451648803,340282346638528860000000000000000000000,1575420030,,,,1,,6,,22.8601016998291,-4.569301381707191,1.5000000237487257,-4.569301381707191,1.5000000237487257,C,665823412033000
Raw,1701102838999,13565000000,,,-1385138043434900974,0.0,7.44195714062926,,,194,9,0.0,85026,146056909089081,32,31.83765411376953,720.2488757665515,0.6936913543475085,16,3079.076140187393,340282346638528860000000000000000000000,1575420030,,,,1,,6,,27.927654266357422,-4.569301381707191,1.5000000237487257,-4.569301381707191,1.5000000237487257,C,665823412033000
Raw,1701102838999,13565000000,,,-1385138043434900974,0.0,7.44195714062926,,,194,12,0.0,85026,146056909337688,28,33.47773361206055,-445.1339574986216,0.8287379626372067,16,-3897.441912835702,340282346638528860000000000000000000000,1575420030,,,,0,,6,,29.567733764648438,-4.569301381707191,1.5000000237487257,-4.569301381707191,1.5000000237487257,C,665823412033000
Raw,1701102838999,13565000000,,,-1385138043434900974,0.0,7.44195714062926,,,194,24,0.0,85026,146056921634084,23,35.83280944824219,51.70479918854363,0.5141316932094131,16,241.61840920774128,340282346638528860000000000000000000000,1575420030,,,,0,,6,,31.922809600830078,-4.569301381707191,1.5000000237487257,-4.569301381707191,1.5000000237487257,C,665823412033000
Raw,1701102838999,13565000000,,,-1385138043434900974,0.0,7.44195714062926,,,194,25,0.0,85026,146056912346249,65,23.259265899658203,-309.6593284064504,1.0793181740497193,16,-2841.2796500009736,340282346638528860000000000000000000000,1575420030,,,,1,,6,,19.349266052246094,-4.569301381707191,1.5000000237487257,-4.569301381707191,1.5000000237487257,C,665823412033000
Raw,1701102838999,13565000000,,,-1385138043434900974,0.0,7.44195714062926,,,194,31,0.0,85026,146056916912114,12,43.65531539916992,458.57713490737024,0.15,25,6028.678764082956,0.0009356208029203117,1575420030,,,,0,,6,,39.74531555175781,-4.569301381707191,1.5000000237487257,-4.569301381707191,1.5000000237487257,C,665823412033000
Raw,1701102838999,13565000000,,,-1385138043434900974,0.0,7.44195714062926,,,194,33,0.0,85026,146056912946375,18,39.18471908569336,-50.94390834667189,0.15,25,-453.51481672956936,0.0015654157614335418,1575420030,,,,0,,6,,35.27471923828125,-4.569301381707191,1.5000000237487257,-4.569301381707191,1.5000000237487257,C,665823412033000
Raw,1701102838999,13565000000,,,-1385138043434900974,0.0,7.44195714062926,,,194,3,0.0,84003,146056912785936,7,34.33130645751953,-111.09214194312221,0.5761936831002692,25,-1501.7827417787837,0.0033966198097914457,1176450050,,,,0,,6,,30.571308135986328,-7.339869625866411,8.171281927711767,-7.339869625866411,1.5000000237487257,Q,665823412033000
Raw,1701102838999,13565000000,,,-1385138043434900974,0.0,7.44195714062926,,,194,5,0.0,84003,146056921577175,28,27.533981323242188,406.07791626035055,1.0339879743359983,16,5443.581830507234,340282346638528860000000000000000000000,1176450050,,,,0,,6,,23.77398109436035,-8.07868782430887,8.171281927711767,-8.07868782430887,1.5000000237487257,Q,665823412033000
Raw,1701102838999,13565000000,,,-1385138043434900974,0.0,7.44195714062926,,,194,9,0.0,16384,146056909089005,1000000000,20.813535690307617,719.5268730075722,299792458,16,7740.812989275218,340282346638528860000000000000000000000,1176450050,,,,0,,6,,17.05353546142578,-6.785755977034567,8.171281927711767,-6.785755977034567,1.5000000237487257,Q,665823412033000
Raw,1701102838999,13565000000,,,-1385138043434900974,0.0,7.44195714062926,,,194,12,0.0,16384,146056909337621,1000000000,19.328031539916992,-444.97162275820347,299792458,16,-4360.486703400311,340282346638528860000000000000000000000,1176450050,,,,0,,6,,15.568032264709473,3.9271079003810856,8.171281927711767,3.9271079003810856,1.5000000237487257,Q,665823412033000
Raw,1701102838999,13565000000,,,-1385138043434900974,0.0,7.44195714062926,,,194,24,0.0,84003,146056921634010,21,33.86516189575195,51.900624202802504,0.5987472827331537,25,339.0116351223936,0.0035838864278048277,1176450050,,,,0,,6,,30.105161666870117,-2.906960435211658,8.171281927711767,-2.906960435211658,1.5000000237487257,Q,665823412033000
Raw,1701102838999,13565000000,,,-1385138043434900974,0.0,7.44195714062926,,,194,25,0.0,84003,146056912346247,115,22.31955909729004,-308.72103837837744,1.1162694148426606,16,-4473.112471132718,340282346638528860000000000000000000000,1176450050,,,,0,,6,,18.559558868408203,-8.07868782430887,8.171281927711767,-8.07868782430887,1.5000000237487257,Q,665823412033000
Raw,1701102838999,13565000000,,,-1385138043434900974,0.0,7.44195714062926,,,194,31,0.0,84003,146056916912042,17,30.45985221862793,458.80978175559494,0.7510308271400716,25,7541.4099928805845,0.0053041973151266575,1176450050,,,,0,,6,,26.699851989746094,-9.741028770804402,8.171281927711767,-9.741028770804402,1.5000000237487257,Q,665823412033000
Raw,1701102838999,13565000000,,,-1385138043434900974,0.0,7.44195714062926,,,194,33,0.0,84003,146056912946308,12,31.052387237548828,-50.44898847489003,1.1247448963453897,16,-679.6883966677619,340282346638528860000000000000000000000,1176450050,,,,0,,6,,27.292387008666992,-1.6140285879373555,8.171281927711767,-1.6140285879373555,1.5000000237487257,Q,665823412033000
Raw,1701102838999,13565000000,,,-1385138043434900974,0.0,7.44195714062926,,,194,6,0.0,16385,146056871579587,46,27.361780166625977,132.92517613812367,1.561901661050876,16,309.37418757651614,340282346638528860000000000000000000000,1176450050,,,,0,,7,,23.451780319213867,-32.30030813900531,1.5000000237487257,-32.30030813900531,1.5000000237487257,C,665823412033000
Raw,1701102839999,14565000000,,,-1385138043434900600,0.0,6.826627683705118,,,194,6,0.0,16431,146057923054435,12,43.272823333740234,-19.13930168187875,0.15,17,-289.91018362127363,0.0961245790012998,1575420030,,,,0,,1,,39.362823486328125,0.43655744850213174,1.0,0.43655744850213174,1.0,C,665824412045000
Raw,1701102839999,14565000000,,,-1385138043434900600,0.0,6.826627683705118,,,194,11,0.0,16431,146057920775015,13,45.305233001708984,-360.1094075199492,0.15,25,-5086.784400335434,0.0008156102849170566,1575420030,,,,0,,1,,41.395233154296875,-0.20372681261465636,1.0,-0.20372681261465636,1.0,C,665824412045000
Raw,1701102839999,14565000000,,,-1385138043434900600,0.0,6.826627683705118,,,194,12,0.0,16431,146057932616180,14,41.8758544921875,185.97187832549753,0.15,29,2631.2046381885007,0.0011483464622870088,1575420030,,,,0,,1,,37.96585464477539,-0.5238689680255122,1.0,-0.5238689680255122,1.0,C,665824412045000
Raw,1701102839999,14565000000,,,-1385138043434900600,0.0,6.826627683705118,,,194,19,0.0,16385,146057920756182,14,41.95005798339844,739.5850121554636,0.15,16,2415.2939753920655,340282346638528860000000000000000000000,1575420030,,,,0,,1,,38.04005813598633,0.0,1.0,0.0,1.0,C,665824412045000
Raw,1701102839999,14565000000,,,-1385138043434900600,0.0,6.826627683705118,,,194,24,0.0,16431,146057926781031,17,39.526676177978516,672.0738687908633,0.15,17,9637.3304185759,0.09665182026856368,1575420030,,,,0,,1,,35.616676330566406,0.23283063588747532,1.0,0.23283063588747532,1.0,C,665824412045000
Raw,1701102839999,14565000000,,,-1385138043434900600,0.0,6.826627683705118,,,194,25,0.0,16419,146057930673489,21,36.92379379272461,-262.4073936419978,0.15,21,-3783.9961972063284,0.09717767770689702,1575420030,,,,0,,1,,33.0137939453125,-1.6007106776444318,1.0,-1.6007106776444318,1.0,C,665824412045000
Raw,1701102839999,14565000000,,,-1385138043434900600,0.0,6.826627683705118,,,194,29,0.0,16385,146057918929011,42,28.606243133544922,-609.3104797848036,5.838127230617264,16,-874.971320984057,340282346638528860000000000000000000000,1575420030,,,,0,,1,,24.696243286132812,-0.5529727912983312,1.0,-0.5529727912983312,1.0,C,665824412045000
Raw,1701102839999,14565000000,,,-1385138043434900600,0.0,6.826627683705118,,,194,32,0.0,16419,146057924611742,16,40.546504974365234,-5.6904266449686,0.15,17,-96.97579643297225,0.09648509629823988,1575420030,,,,0,,1,,36.636505126953125,-0.05820765897186883,1.0,-0.05820765897186883,1.0,C,665824412045000
Raw,1701102839999,14565000000,,,-1385138043434900600,0.0,6.826627683705118,,,194,6,0.0,81921,146057923054368,83,22.80471420288086,-19.299352897709866,1.0927812103473147,16,-357.88195667779746,340282346638528860000000000000000000000,1176450050,,,,0,,1,,19.044713973999023,2.2409949884661438,7.671281903963041,2.2409949884661438,1.0,Q,665824412045000
Raw,1701102839999,14565000000,,,-1385138043434900600,0.0,6.826627683705118,,,194,11,0.0,81921,146057920774946,6,34.238319396972656,-360.2455328513013,0.5818122293118928,25,-6304.32152974854,0.0034331781789660454,1176450050,,,,0,,1,,30.478321075439453,0.0,7.671281903963041,0.0,1.0,Q,665824412045000
Raw,1701102839999,14565000000,,,-1385138043434900600,0.0,6.826627683705118,,,194,24,0.0,81921,146057926780951,7,36.836151123046875,672.3688183696117,0.15,25,11716.88150108169,0.002545685041695833,1176450050,,,,0,,1,,33.07615280151367,2.6484485142856093,7.671281903963041,2.6484485142856093,1.0,Q,665824412045000
Raw,1701102839999,14565000000,,,-1385138043434900600,0.0,6.826627683705118,,,194,25,0.0,81921,146057930673441,14,30.731943130493164,-263.2622327752747,0.73767303374045,16,-4611.187172580574,340282346638528860000000000000000000000,1176450050,,,,0,,1,,26.971942901611328,0.1455191536427875,7.671281903963041,0.1455191536427875,1.0,Q,665824412045000
Raw,1701102839999,14565000000,,,-1385138043434900600,0.0,6.826627683705118,,,194,32,0.0,81921,146057924611695,14,32.51332473754883,-5.708890283251449,0.6564759745165154,16,-121.73672217854855,340282346638528860000000000000000000000,1176450050,,,,0,,1,,28.753326416015625,9.196810540047126,7.671281903963041,9.196810540047126,1.0,Q,665824412045000
Raw,1701102839999,14565000000,,,-1385138043434900600,0.0,6.826627683705118,,,194,12,0.0,32867,70439933316598,40,37.65750503540039,-194.44227195651376,0.15,16,-2752.0500435640424,340282346638528860000000000000000000000,1601437440,,,,0,,3,,33.74750518798828,54.016709327697754,2.0000000474974513,54.016709327697754,2.0000000474974513,C,665824412045000
Raw,1701102839999,14565000000,,,-1385138043434900600,0.0,6.826627683705118,,,194,11,0.0,32867,70439931607735,33,45.741764068603516,474.9803395826684,0.15,17,6716.267145284512,0.09433094662057623,1602000000,,,,0,,3,,41.831764221191406,54.016709327697754,2.0000000474974513,54.016709327697754,2.0000000474974513,C,665824412045000
Raw,1701102839999,14565000000,,,-1385138043434900600,0.0,6.826627683705118,,,194,21,0.0,32867,70439932179577,33,40.452606201171875,-46.2612173976334,0.15,17,-669.5660180089308,0.09476544550668375,1604249980,,,,0,,3,,36.542606353759766,54.016709327697754,2.0000000474974513,54.016709327697754,2.0000000474974513,C,665824412045000
Raw,1701102839999,14565000000,,,-1385138043434900600,0.0,6.826627683705118,,,194,10,0.0,81955,146043867335263,11,36.35271072387695,261.3132274990178,0.15,17,3363.307873535658,0.09820849416349982,1561097980,,,,0,,5,,32.442710876464844,15.425030142068863,4.8356409757302465,15.425030142068863,1.5000000237487257,I,665824412045000
Raw,1701102839999,14565000000,,,-1385138043434900600,0.0,6.826627683705118,,,194,19,0.0,16384,146043913900682,1000000000,21.974300384521484,589.4201626528306,299792458,16,1369.4594037981722,340282346638528860000000000000000000000,1561097980,,,,0,,5,,18.064300537109375,15.425030142068863,4.8356409757302465,15.425030142068863,1.5000000237487257,I,665824412045000
Raw,1701102839999,14565000000,,,-1385138043434900600,0.0,6.826627683705118,,,194,22,0.0,81955,146043914682346,10,37.34131622314453,157.02484706294638,0.15,16,1108.2425730047412,340282346638528860000000000000000000000,1561097980,,,,0,,5,,33.43131637573242,15.425030142068863,4.8356409757302465,15.425030142068863,1.5000000237487257,I,665824412045000
Raw,1701102839999,14565000000,,,-1385138043434900600,0.0,6.826627683705118,,,194,27,0.0,81955,146043922506515,7,41.70103073120117,-376.1806490687152,0.15,17,782029.3577686086,0.09720218650103514,1561097980,,,,0,,5,,37.79103088378906,15.425030142068863,4.8356409757302465,15.425030142068863,1.5000000237487257,I,665824412045000
Raw,1701102839999,14565000000,,,-1385138043434900600,0.0,6.826627683705118,,,194,28,0.0,81955,146043923713794,6,45.50571823120117,148.55581673019105,0.15,17,263869.2130950966,0.0968240556241103,1561097980,,,,0,,5,,41.59571838378906,15.425030142068863,4.8356409757302465,15.425030142068863,1.5000000237487257,I,665824412045000
Raw,1701102839999,14565000000,,,-1385138043434900600,0.0,6.826627683705118,,,194,36,0.0,81955,146043916938116,8,39.90313720703125,-409.9488994248418,0.15,17,781634.5589093753,0.09747411348429476,1561097980,,,,0,,5,,35.99313735961914,15.425030142068863,4.8356409757302465,15.425030142068863,1.5000000237487257,I,665824412045000
Raw,1701102839999,14565000000,,,-1385138043434900600,0.0,6.826627683705118,,,194,37,0.0,81955,146043922470407,7,41.87449264526367,490.2373512451045,0.15,17,267865.2527822396,0.09717880669553731,1561097980,,,,0,,5,,37.96449279785156,15.425030142068863,4.8356409757302465,15.425030142068863,1.5000000237487257,I,665824412045000
Raw,1701102839999,14565000000,,,-1385138043434900600,0.0,6.826627683705118,,,194,46,0.0,81955,146043927173003,8,39.6193733215332,-59.207523713964235,0.15,17,785734.5613570041,0.097522411756599,1561097980,,,,0,,5,,35.709373474121094,15.425030142068863,4.8356409757302465,15.425030142068863,1.5000000237487257,I,665824412045000
Raw,1701102839999,14565000000,,,-1385138043434900600,0.0,6.826627683705118,,,194,22,0.0,81959,146043914682415,8,37.28293228149414,157.13571729401508,0.15,25,1782.3894883106195,0.0025647312868386507,1176450050,,,,0,,5,,33.52293395996094,35.12051118152577,8.171281927711767,35.12051118152577,1.5000000237487257,Q,665824412045000
Raw,1701102839999,14565000000,,,-1385138043434900600,0.0,6.826627683705118,,,194,27,0.0,81959,146043922506562,26,28.33248519897461,-375.98095995594804,1.1241528467979016,16,-6222.336884976101,340282346638528860000000000000000000000,1176450050,,,,0,,5,,24.572484970092773,27.67254668456183,8.171281927711767,27.67254668456183,1.5000000237487257,Q,665824412045000
Raw,1701102839999,14565000000,,,-1385138043434900600,0.0,6.826627683705118,,,194,28,0.0,81959,146043923713844,32,27.073768615722656,148.2451721802139,0.9045227677056977,16,2273.976007494028,340282346638528860000000000000000000000,1176450050,,,,0,,5,,23.31376838684082,27.78896118237433,8.171281927711767,27.78896118237433,1.5000000237487257,Q,665824412045000
Raw,1701102839999,14565000000,,,-1385138043434900600,0.0,6.826627683705118,,,194,36,0.0,81959,146043916938137,7,38.61935043334961,-409.9609986969074,0.15,25,-6773.492943933909,0.0021989785600453615,1176450050,,,,0,,5,,34.859352111816406,-0.045144423887897744,8.171281927711767,-0.045144423887897744,1.5000000237487257,Q,665824412045000
Raw,1701102839999,14565000000,,,-1385138043434900600,0.0,6.826627683705118,,,194,37,0.0,81959,146043922470448,50,27.76873207092285,490.4865962496558,0.8730473528376907,16,8044.444162088699,340282346638528860000000000000000000000,1176450050,,,,0,,5,,24.008731842041016,9.277065645104923,8.171281927711767,9.277065645104923,1.5000000237487257,Q,665824412045000
Raw,1701102839999,14565000000,,,-1385138043434900600,0.0,6.826627683705118,,,194,46,0.0,81959,146043927173085,7,37.84986877441406,-59.37093205176285,0.15,25,-942.2096701652617,0.0024026751052588224,1176450050,,,,0,,5,,34.08987045288086,52.81723841416391,8.171281927711767,52.81723841416391,1.5000000237487257,Q,665824412045000
Raw,1701102839999,14565000000,,,-1385138043434900600,0.0,6.826627683705118,,,194,3,0.0,85026,146057912786374,19,38.444515228271484,-110.48285838847806,0.15,25,-1099.9778753578994,0.0017046682769432664,1575420030,,,,0,,6,,34.534515380859375,-4.569301381707191,1.5000000237487257,-4.569301381707191,1.5000000237487257,C,665824412045000
Raw,1701102839999,14565000000,,,-1385138043434900600,0.0,6.826627683705118,,,194,5,0.0,85026,146057921575824,44,27.893617630004883,405.0096357430996,0.871137670195647,16,5171.348086340278,340282346638528860000000000000000000000,1575420030,,,,1,,6,,23.983617782592773,-4.569301381707191,1.5000000237487257,-4.569301381707191,1.5000000237487257,C,665824412045000
Raw,1701102839999,14565000000,,,-1385138043434900600,0.0,6.826627683705118,,,194,9,0.0,85026,146057909086675,30,32.81069564819336,720.9693788974437,0.6499343395849664,25,3799.6666567388083,0.0030743598472326994,1575420030,,,,0,,6,,28.90069580078125,-4.569301381707191,1.5000000237487257,-4.569301381707191,1.5000000237487257,C,665824412045000
Raw,1701102839999,14565000000,,,-1385138043434900600,0.0,6.826627683705118,,,194,12,0.0,85026,146057909339173,29,33.08613967895508,-444.4297457819473,0.6375934282280058,25,-4342.0728887229125,0.0029783970676362514,1575420030,,,,0,,6,,29.176137924194336,-4.569301381707191,1.5000000237487257,-4.569301381707191,1.5000000237487257,C,665824412045000
Raw,1701102839999,14565000000,,,-1385138043434900600,0.0,6.826627683705118,,,194,24,0.0,85026,146057921633910,21,37.0446891784668,52.215571662915664,0.15,16,296.62137920263206,340282346638528860000000000000000000000,1575420030,,,,0,,6,,33.13468933105469,-4.569301381707191,1.5000000237487257,-4.569301381707191,1.5000000237487257,C,665824412045000
Raw,1701102839999,14565000000,,,-1385138043434900600,0.0,6.826627683705118,,,194,25,0.0,85026,146057912347307,56,24.946805953979492,-309.0936277930848,1.003431587582745,16,-3151.1273534342836,340282346638528860000000000000000000000,1575420030,,,,0,,6,,21.036806106567383,-4.569301381707191,1.5000000237487257,-4.569301381707191,1.5000000237487257,C,665824412045000
Raw,1701102839999,14565000000,,,-1385138043434900600,0.0,6.826627683705118,,,194,26,0.0,16384,146057907558396,1000000000,35.11962127685547,395.81047398548435,299792458,16,5.398439108224107,340282346638528860000000000000000000000,1575420030,,,,0,,6,,31.209619522094727,-4.569301381707191,1.5000000237487257,-4.569301381707191,1.5000000237487257,C,665824412045000
Raw,1701102839999,14565000000,,,-1385138043434900600,0.0,6.826627683705118,,,194,31,0.0,85026,146057916910570,12,43.971004486083984,459.06485486021165,0.15,25,6487.521062248375,0.0009022260783240199,1575420030,,,,0,,6,,40.061004638671875,-4.569301381707191,1.5000000237487257,-4.569301381707191,1.5000000237487257,C,665824412045000
Raw,1701102839999,14565000000,,,-1385138043434900600,0.0,6.826627683705118,,,194,33,0.0,85026,146057912946546,22,36.36781692504883,-50.18560777149588,0.15,25,-503.9802842299823,0.0021650847047567368,1575420030,,,,0,,6,,32.45781707763672,-4.569301381707191,1.5000000237487257,-4.569301381707191,1.5000000237487257,C,665824412045000
Raw,1701102839999,14565000000,,,-1385138043434900600,0.0,6.826627683705118,,,194,3,0.0,84003,146057912786306,9,34.90154266357422,-110.84445621095682,0.5505508615902708,25,-1612.6268563085005,0.003180790925398469,1176450050,,,,0,,6,,31.141544342041016,-7.339869625866411,8.171281927711767,-7.339869625866411,1.5000000237487257,Q,665824412045000
Raw,1701102839999,14565000000,,,-1385138043434900600,0.0,6.826627683705118,,,194,5,0.0,84003,146057921575820,24,28.2526912689209,406.3217080718582,0.8511232801410098,25,5849.695208715353,0.006838766857981682,1176450050,,,,0,,6,,24.492691040039062,-8.07868782430887,8.171281927711767,-8.07868782430887,1.5000000237487257,Q,665824412045000
Raw,1701102839999,14565000000,,,-1385138043434900600,0.0,6.826627683705118,,,194,9,0.0,84003,146057909086612,61,24.339244842529297,720.4980866886463,1.0248600667465895,16,8460.703783213321,340282346638528860000000000000000000000,1176450050,,,,0,,6,,20.57924461364746,-6.785755977034567,8.171281927711767,-6.785755977034567,1.5000000237487257,Q,665824412045000
Raw,1701102839999,14565000000,,,-1385138043434900600,0.0,6.826627683705118,,,194,12,0.0,16384,146057909339099,1000000000,17.65067481994629,-445.02840413077047,299792458,16,-4797.53561591896,340282346638528860000000000000000000000,1176450050,,,,0,,6,,13.890674591064453,3.9271079003810856,8.171281927711767,3.9271079003810856,1.5000000237487257,Q,665824412045000
Raw,1701102839999,14565000000,,,-1385138043434900600,0.0,6.826627683705118,,,194,24,0.0,84003,146057921633839,12,32.8392219543457,52.05499642931551,0.6448826139149282,25,391.12462723388813,0.00403321348130703,1176450050,,,,0,,6,,29.079221725463867,-2.906960435211658,8.171281927711767,-2.906960435211658,1.5000000237487257,Q,665824412045000
Raw,1701102839999,14565000000,,,-1385138043434900600,0.0,6.826627683705118,,,194,25,0.0,84003,146057912347270,82,23.041109085083008,-308.84683672540314,1.0838221839926683,16,-4782.4999304809335,340282346638528860000000000000000000000,1176450050,,,,0,,6,,19.281108856201172,-8.07868782430887,8.171281927711767,-8.07868782430887,1.5000000237487257,Q,665824412045000
Raw,1701102839999,14565000000,,,-1385138043434900600,0.0,6.826627683705118,,,194,31,0.0,84003,146057916910512,19,29.28941535949707,459.21740793560775,0.81612798626215,16,8000.248271227479,340282346638528860000000000000000000000,1176450050,,,,0,,6,,25.529415130615234,-9.741028770804402,8.171281927711767,-9.741028770804402,1.5000000237487257,Q,665824412045000
Raw,1701102839999,14565000000,,,-1385138043434900600,0.0,6.826627683705118,,,194,33,0.0,84003,146057912946479,55,27.077573776245117,-50.48684556347274,299.79477485014036,16,-730.2297528071465,340282346638528860000000000000000000000,1176450050,,,,0,,6,,23.31757354736328,-1.6140285879373555,8.171281927711767,-1.6140285879373555,1.5000000237487257,Q,665824412045000
Raw,1701102839999,14565000000,,,-1385138043434900600,0.0,6.826627683705118,,,194,6,0.0,16385,146057871579109,102,25.71677017211914,133.98724512767336,1.2054171389927113,16,443.6282943949299,340282346638528860000000000000000000000,1176450050,,,,0,,7,,21.80677032470703,-32.30030813900531,1.5000000237487257,-32.30030813900531,1.5000000237487257,C,665824412045000
Raw,1701102840999,15565000000,,,-1385138043434900225,0.0,6.35877790414801,,,194,6,0.0,16431,146058923054502,12,43.33442687988281,-18.646616341152665,0.15,25,-308.6811793262008,0.000970832712482661,1575420030,,,,0,,1,,39.4244270324707,0.43655744850213174,1.0,0.43655744850213174,1.0,C,665825412060000
Raw,1701102840999,15565000000,,,-1385138043434900225,0.0,6.35877790414801,,,194,11,0.0,16431,146058920776217,14,44.72868347167969,-359.81295831311377,0.15,25,-5446.620098762065,0.0008715863223187625,1575420030,,,,0,,1,,40.81868362426758,-0.20372681261465636,1.0,-0.20372681261465636,1.0,C,665825412060000
Raw,1701102840999,15565000000,,,-1385138043434900225,0.0,6.35877790414801,,,194,12,0.0,16431,146058932615557,14,41.83744430541992,186.6884278914331,0.15,16,2817.721549493986,340282346638528860000000000000000000000,1575420030,,,,0,,1,,37.92744445800781,-0.5238689680255122,1.0,-0.5238689680255122,1.0,C,665825412060000
Raw,1701102840999,15565000000,,,-1385138043434900225,0.0,6.35877790414801,,,194,19,0.0,16397,146058920753717,15,41.424827575683594,740.3623648238358,0.15,25,3155.2568388540776,0.0012095514684915543,1575420030,,,,0,,1,,37.514827728271484,0.0,1.0,0.0,1.0,C,665825412060000
Raw,1701102840999,15565000000,,,-1385138043434900225,0.0,6.35877790414801,,,194,24,0.0,16431,146058926778769,19,38.52303695678711,673.3626628018169,0.15,16,10310.168415002203,340282346638528860000000000000000000000,1575420030,,,,0,,1,,34.613037109375,0.23283063588747532,1.0,0.23283063588747532,1.0,C,665825412060000
Raw,1701102840999,15565000000,,,-1385138043434900225,0.0,6.35877790414801,,,194,25,0.0,16431,146058930674377,19,38.26468276977539,-262.8034317867929,0.15,21,-4046.6894575713677,0.09688716653090691,1575420030,,,,0,,1,,34.35468292236328,-1.6007106776444318,1.0,-1.6007106776444318,1.0,C,665825412060000
Raw,1701102840999,15565000000,,,-1385138043434900225,0.0,6.35877790414801,,,194,29,0.0,16385,146058918931091,33,31.552471160888672,-607.355101089177,1.1055562070538558,16,-2091.778211359767,340282346638528860000000000000000000000,1575420030,,,,0,,1,,27.642471313476562,-0.5529727912983312,1.0,-0.5529727912983312,1.0,C,665825412060000
Raw,1701102840999,15565000000,,,-1385138043434900225,0.0,6.35877790414801,,,194,32,0.0,16431,146058924611765,15,40.78114700317383,-5.089137556532581,0.15,25,-102.1066669036755,0.0013025917578488588,1575420030,,,,0,,1,,36.87114715576172,-0.05820765897186883,1.0,-0.05820765897186883,1.0,C,665825412060000
Raw,1701102840999,15565000000,,,-1385138043434900225,0.0,6.35877790414801,,,194,6,0.0,81921,146058923054431,68,24.063255310058594,-18.389915799236988,299.79300256240117,16,-376.357846055897,340282346638528860000000000000000000000,1176450050,,,,0,,1,,20.303255081176758,2.2409949884661438,7.671281903963041,2.2409949884661438,1.0,Q,665825412060000
Raw,1701102840999,15565000000,,,-1385138043434900225,0.0,6.35877790414801,,,194,11,0.0,81921,146058920776146,7,35.66236877441406,-359.90181127726873,0.5177746551540758,25,-6664.239008113324,0.00291402917355299,1176450050,,,,0,,1,,31.902368545532227,0.0,7.671281903963041,0.0,1.0,Q,665825412060000
Raw,1701102840999,15565000000,,,-1385138043434900225,0.0,6.35877790414801,,,194,24,0.0,81921,146058926778706,7,38.923526763916016,672.9318605513686,0.15,25,12389.8807992641,0.002123303711414337,1176450050,,,,0,,1,,35.16352844238281,2.6484485142856093,7.671281903963041,2.6484485142856093,1.0,Q,665825412060000
Raw,1701102840999,15565000000,,,-1385138043434900225,0.0,6.35877790414801,,,194,25,0.0,81921,146058930674318,9,33.00752258300781,-263.09357573917157,0.635342921020734,16,-4874.032573118015,340282346638528860000000000000000000000,1176450050,,,,0,,1,,29.24752426147461,0.1455191536427875,7.671281903963041,0.1455191536427875,1.0,Q,665825412060000
Raw,1701102840999,15565000000,,,-1385138043434900225,0.0,6.35877790414801,,,194,32,0.0,81921,146058924611709,13,34.02127456665039,-4.98043369160661,0.5886652660629998,16,-127.71238004007861,340282346638528860000000000000000000000,1176450050,,,,0,,1,,30.261274337768555,9.196810540047126,7.671281903963041,9.196810540047126,1.0,Q,665825412060000
Raw,1701102840999,15565000000,,,-1385138043434900225,0.0,6.35877790414801,,,194,12,0.0,32867,70440933317274,41,37.34830856323242,-193.31359732630438,0.15,16,-2945.4746019093072,340282346638528860000000000000000000000,1601437440,,,,0,,3,,33.43830871582031,54.016709327697754,2.0000000474974513,54.016709327697754,2.0000000474974513,C,665825412060000
Raw,1701102840999,15565000000,,,-1385138043434900225,0.0,6.35877790414801,,,194,11,0.0,32867,70440931606169,33,45.98825454711914,475.29308020372173,0.15,17,7191.481857664707,0.09430960489811763,1602000000,,,,0,,3,,42.07825469970703,54.016709327697754,2.0000000474974513,54.016709327697754,2.0000000474974513,C,665825412060000
Raw,1701102840999,15565000000,,,-1385138043434900225,0.0,6.35877790414801,,,194,21,0.0,32867,70440932179690,33,42.73848342895508,-44.937024495273846,0.15,21,-715.022083045054,0.09445804561071025,1604249980,,,,0,,3,,38.82848358154297,54.016709327697754,2.0000000474974513,54.016709327697754,2.0000000474974513,C,665825412060000
Raw,1701102840999,15565000000,,,-1385138043434900225,0.0,6.35877790414801,,,194,10,0.0,81955,146044867334384,12,35.392784118652344,262.04784076691044,0.5342250653630041,17,3624.899596726583,0.09846425839272295,1561097980,,,,0,,5,,31.4827823638916,15.425030142068863,4.8356409757302465,15.425030142068863,1.5000000237487257,I,665825412060000
Raw,1701102840999,15565000000,,,-1385138043434900225,0.0,6.35877790414801,,,194,19,0.0,16384,146044913898714,1000000000,24.54721450805664,589.7948651798424,299792458,16,1369.4414861785626,340282346638528860000000000000000000000,1561097980,,,,0,,5,,20.63721466064453,15.425030142068863,4.8356409757302465,15.425030142068863,1.5000000237487257,I,665825412060000
Raw,1701102840999,15565000000,,,-1385138043434900225,0.0,6.35877790414801,,,194,22,0.0,81955,146044914681840,10,37.637454986572266,157.8557262292877,0.15,17,1265.826467072241,0.09790755694770222,1561097980,,,,0,,5,,33.727455139160156,15.425030142068863,4.8356409757302465,15.425030142068863,1.5000000237487257,I,665825412060000
Raw,1701102840999,15565000000,,,-1385138043434900225,0.0,6.35877790414801,,,194,27,0.0,81955,146044922507761,8,39.81607437133789,-375.78447459409404,0.15,17,781653.7014942031,0.09748876470179264,1561097980,,,,0,,5,,35.90607452392578,15.425030142068863,4.8356409757302465,15.425030142068863,1.5000000237487257,I,665825412060000
Raw,1701102840999,15565000000,,,-1385138043434900225,0.0,6.35877790414801,,,194,28,0.0,81955,146044923713301,6,42.90826416015625,148.80661248651415,0.15,16,264018.18491930846,340282346638528860000000000000000000000,1561097980,,,,0,,5,,38.99826431274414,15.425030142068863,4.8356409757302465,15.425030142068863,1.5000000237487257,I,665825412060000
Raw,1701102840999,15565000000,,,-1385138043434900225,0.0,6.35877790414801,,,194,36,0.0,81955,146044916939472,9,38.67215347290039,-409.46291767728303,0.15,16,781225.0424593514,340282346638528860000000000000000000000,1561097980,,,,0,,5,,34.76215362548828,15.425030142068863,4.8356409757302465,15.425030142068863,1.5000000237487257,I,665825412060000
Raw,1701102840999,15565000000,,,-1385138043434900225,0.0,6.35877790414801,,,194,37,0.0,81955,146044922468761,7,40.72762680053711,490.4531613598069,0.15,16,268355.9018507802,340282346638528860000000000000000000000,1561097980,,,,0,,5,,36.817626953125,15.425030142068863,4.8356409757302465,15.425030142068863,1.5000000237487257,I,665825412060000
Raw,1701102840999,15565000000,,,-1385138043434900225,0.0,6.35877790414801,,,194,46,0.0,81955,146044927173211,8,39.52597427368164,-58.79616976526924,0.15,17,785675.8084266933,0.0975386572819293,1561097980,,,,0,,5,,35.61597442626953,15.425030142068863,4.8356409757302465,15.425030142068863,1.5000000237487257,I,665825412060000
Raw,1701102840999,15565000000,,,-1385138043434900225,0.0,6.35877790414801,,,194,22,0.0,81959,146044914681893,8,38.465171813964844,157.64063184617225,0.15,25,1939.92960634681,0.002238359535112977,1176450050,,,,0,,5,,34.70517349243164,35.12051118152577,8.171281927711767,35.12051118152577,1.5000000237487257,Q,665825412060000
Raw,1701102840999,15565000000,,,-1385138043434900225,0.0,6.35877790414801,,,194,27,0.0,81959,146044922507820,23,29.246503829956055,-375.53856967028196,1.0009683978586952,16,-6597.93366258195,340282346638528860000000000000000000000,1176450050,,,,0,,5,,25.48650360107422,27.67254668456183,8.171281927711767,27.67254668456183,1.5000000237487257,Q,665825412060000
Raw,1701102840999,15565000000,,,-1385138043434900225,0.0,6.35877790414801,,,194,28,0.0,81959,146044923713347,17,29.747018814086914,148.98818677363943,0.9969913346458918,16,2422.8642683177277,340282346638528860000000000000000000000,1176450050,,,,0,,5,,25.987018585205078,27.78896118237433,8.171281927711767,27.78896118237433,1.5000000237487257,Q,665825412060000
Raw,1701102840999,15565000000,,,-1385138043434900225,0.0,6.35877790414801,,,194,36,0.0,81959,146044916939504,7,39.75686264038086,-409.52361853235016,0.15,25,-7183.013912356511,0.001929058344103396,1176450050,,,,0,,5,,35.996864318847656,-0.045144423887897744,8.171281927711767,-0.045144423887897744,1.5000000237487257,Q,665825412060000
Raw,1701102840999,15565000000,,,-1385138043434900225,0.0,6.35877790414801,,,194,37,0.0,81959,146044922468807,24,28.395267486572266,490.8001889321222,1.3037255884100336,16,8535.14862883906,340282346638528860000000000000000000000,1176450050,,,,0,,5,,24.63526725769043,9.277065645104923,8.171281927711767,9.277065645104923,1.5000000237487257,Q,665825412060000
Raw,1701102840999,15565000000,,,-1385138043434900225,0.0,6.35877790414801,,,194,46,0.0,81959,146044927173282,7,40.6590461730957,-58.71158988910082,0.15,25,-1000.9489018411123,0.0017387464176863432,1176450050,,,,0,,5,,36.8990478515625,52.81723841416391,8.171281927711767,52.81723841416391,1.5000000237487257,Q,665825412060000
Raw,1701102840999,15565000000,,,-1385138043434900225,0.0,6.35877790414801,,,194,3,0.0,85026,146058912786739,20,37.639225006103516,-110.09518748675936,0.15,25,-1210.165092992948,0.0018702708184719086,1575420030,,,,0,,6,,33.729225158691406,-4.569301381707191,1.5000000237487257,-4.569301381707191,1.5000000237487257,C,665825412060000
Raw,1701102840999,15565000000,,,-1385138043434900225,0.0,6.35877790414801,,,194,5,0.0,85026,146058921574484,40,29.08597183227539,406.0542630355237,0.8175187102497956,16,5575.7119058847,340282346638528860000000000000000000000,1575420030,,,,0,,6,,25.17597198486328,-4.569301381707191,1.5000000237487257,-4.569301381707191,1.5000000237487257,C,665825412060000
Raw,1701102840999,15565000000,,,-1385138043434900225,0.0,6.35877790414801,,,194,9,0.0,85026,146058909084280,23,35.72864532470703,720.9786493256179,0.5187170816740401,25,4520.736675390487,0.002197137800976634,1575420030,,,,0,,6,,31.81864356994629,-4.569301381707191,1.5000000237487257,-4.569301381707191,1.5000000237487257,C,665825412060000
Raw,1701102840999,15565000000,,,-1385138043434900225,0.0,6.35877790414801,,,194,12,0.0,85026,146058909340647,32,31.9041690826416,-444.1092343608068,0.690745418579116,25,-4786.165668500059,0.003412565216422081,1575420030,,,,0,,6,,27.994169235229492,-4.569301381707191,1.5000000237487257,-4.569301381707191,1.5000000237487257,C,665825412060000
Raw,1701102840999,15565000000,,,-1385138043434900225,0.0,6.35877790414801,,,194,24,0.0,85026,146058921633719,21,37.070518493652344,52.92806115621795,0.15,16,353.399049435082,340282346638528860000000000000000000000,1575420030,,,,0,,6,,33.160518646240234,-4.569301381707191,1.5000000237487257,-4.569301381707191,1.5000000237487257,C,665825412060000
Raw,1701102840999,15565000000,,,-1385138043434900225,0.0,6.35877790414801,,,194,25,0.0,16384,146058912348380,1000000000,23.90851593017578,-308.5539320940461,299792458,16,-418.71356123093733,340282346638528860000000000000000000000,1575420030,,,,0,,6,,19.998516082763672,-4.569301381707191,1.5000000237487257,-4.569301381707191,1.5000000237487257,C,665825412060000
Raw,1701102840999,15565000000,,,-1385138043434900225,0.0,6.35877790414801,,,194,26,0.0,85026,146058907557041,17,39.57728576660156,396.73758496781784,0.15,16,323.03560487250746,340282346638528860000000000000000000000,1575420030,,,,0,,6,,35.66728591918945,-4.569301381707191,1.5000000237487257,-4.569301381707191,1.5000000237487257,C,665825412060000
Raw,1701102840999,15565000000,,,-1385138043434900225,0.0,6.35877790414801,,,194,31,0.0,85026,146058916909051,11,44.47169494628906,459.64984614396917,0.15,25,6946.940815413896,0.0008516888483427465,1575420030,,,,0,,6,,40.56169509887695,-4.569301381707191,1.5000000237487257,-4.569301381707191,1.5000000237487257,C,665825412060000
Raw,1701102840999,15565000000,,,-1385138043434900225,0.0,6.35877790414801,,,194,33,0.0,85026,146058912946707,19,38.47856521606445,-49.73583011337848,0.15,25,-553.8016005759916,0.0016979993088170886,1575420030,,,,0,,6,,34.568565368652344,-4.569301381707191,1.5000000237487257,-4.569301381707191,1.5000000237487257,C,665825412060000
Raw,1701102840999,15565000000,,,-1385138043434900225,0.0,6.35877790414801,,,194,3,0.0,84003,146058912786672,7,37.366859436035156,-110.0427771892414,0.15,25,-1722.7789258564885,0.0025400689337402582,1176450050,,,,0,,6,,33.60686111450195,-7.339869625866411,8.171281927711767,-7.339869625866411,1.5000000237487257,Q,665825412060000
Raw,1701102840999,15565000000,,,-1385138043434900225,0.0,6.35877790414801,,,194,5,0.0,84003,146058921574461,11,31.930992126464844,406.56471598686585,0.685714062502234,25,6256.456617347451,0.004477780312299728,1176450050,,,,0,,6,,28.170991897583008,-8.07868782430887,8.171281927711767,-8.07868782430887,1.5000000237487257,Q,665825412060000
Raw,1701102840999,15565000000,,,-1385138043434900225,0.0,6.35877790414801,,,194,9,0.0,84003,146058909084205,35,27.120176315307617,720.9500882270518,0.8998043444962254,25,9181.755818022877,0.007791185285896063,1176450050,,,,0,,6,,23.36017608642578,-6.785755977034567,8.171281927711767,-6.785755977034567,1.5000000237487257,Q,665825412060000
Raw,1701102840999,15565000000,,,-1385138043434900225,0.0,6.35877790414801,,,194,12,0.0,16384,146058909340590,1000000000,18.991437911987305,-445.2177662592112,299792458,16,-5241.521097496006,340282346638528860000000000000000000000,1176450050,,,,0,,6,,15.231438636779785,3.9271079003810856,8.171281927711767,3.9271079003810856,1.5000000237487257,Q,665825412060000
Raw,1701102840999,15565000000,,,-1385138043434900225,0.0,6.35877790414801,,,194,24,0.0,84003,146058921633664,7,36.457645416259766,52.51176951163421,0.15,25,443.85305986219606,0.0028203711844980717,1176450050,,,,0,,6,,32.69764709472656,-2.906960435211658,8.171281927711767,-2.906960435211658,1.5000000237487257,Q,665825412060000
Raw,1701102840999,15565000000,,,-1385138043434900225,0.0,6.35877790414801,,,194,26,0.0,16384,146058907556968,1000000000,23.624406814575195,397.94342227959487,299792458,16,2147.698976731631,340282346638528860000000000000000000000,1176450050,,,,0,,6,,19.86440658569336,-1.0599149391055107,8.171281927711767,-1.0599149391055107,1.5000000237487257,Q,665825412060000
Raw,1701102840999,15565000000,,,-1385138043434900225,0.0,6.35877790414801,,,194,31,0.0,84003,146058916908982,17,30.047250747680664,459.2056494881074,0.7891433344448107,16,8459.621040846927,340282346638528860000000000000000000000,1176450050,,,,0,,6,,26.287250518798828,-9.741028770804402,8.171281927711767,-9.741028770804402,1.5000000237487257,Q,665825412060000
Raw,1701102840999,15565000000,,,-1385138043434900225,0.0,6.35877790414801,,,194,33,0.0,84003,146058912946640,25,28.29309844970703,-49.526538268486036,0.8477541094925938,25,-779.9812509820365,0.006807026918977499,1176450050,,,,0,,6,,24.533098220825195,-1.6140285879373555,8.171281927711767,-1.6140285879373555,1.5000000237487257,Q,665825412060000
Raw,1701102840999,15565000000,,,-1385138043434900225,0.0,6.35877790414801,,,194,6,0.0,16385,146058871578683,57,24.823238372802734,132.99617841567482,1.0102890177755133,16,576.9828727430679,340282346638528860000000000000000000000,1176450050,,,,0,,7,,20.913238525390625,-32.30030813900531,1.5000000237487257,-32.30030813900531,1.5000000237487257,C,665825412060000
Raw,1701102841999,16565000000,,,-1385138043434899850,0.0,6.259360104339696,,,194,6,0.0,16431,146059923054559,16,40.62897872924805,-18.239859263781184,0.15,25,-327.28706023296104,0.001325613004155457,1575420030,,,,0,,1,,36.71897888183594,0.43655744850213174,1.0,0.43655744850213174,1.0,C,665826412078000
Raw,1701102841999,16565000000,,,-1385138043434899850,0.0,6.259360104339696,,,194,11,0.0,16431,146059920777433,13,42.96916961669922,-359.57448336482366,0.15,25,-5806.3410774911135,0.0010125284316018224,1575420030,,,,0,,1,,39.05916976928711,-0.20372681261465636,1.0,-0.20372681261465636,1.0,C,665826412078000
Raw,1701102841999,16565000000,,,-1385138043434899850,0.0,6.259360104339696,,,194,12,0.0,16431,146059932614948,14,41.49720764160156,187.06575476759713,0.15,21,3004.513135839468,0.0963463501893801,1575420030,,,,0,,1,,37.58720779418945,-0.5238689680255122,1.0,-0.5238689680255122,1.0,C,665826412078000
Raw,1701102841999,16565000000,,,-1385138043434899850,0.0,6.259360104339696,,,194,19,0.0,16397,146059920751254,14,41.76477813720703,740.4212593087072,0.15,25,3895.4072840448207,0.001163126085884869,1575420030,,,,0,,1,,37.85477828979492,0.0,1.0,0.0,1.0,C,665826412078000
Raw,1701102841999,16565000000,,,-1385138043434899850,0.0,6.259360104339696,,,194,24,0.0,16431,146059926776533,14,42.06801986694336,672.9737819728916,0.15,17,10983.371317773137,0.09627005612765228,1575420030,,,,0,,1,,38.15802001953125,0.23283063588747532,1.0,0.23283063588747532,1.0,C,665826412078000
Raw,1701102841999,16565000000,,,-1385138043434899850,0.0,6.259360104339696,,,194,25,0.0,16431,146059930675248,19,38.417724609375,-262.861849117273,0.15,17,-4309.199391974984,0.09685677083962387,1575420030,,,,0,,1,,34.50772476196289,-1.6007106776444318,1.0,-1.6007106776444318,1.0,C,665826412078000
Raw,1701102841999,16565000000,,,-1385138043434899850,0.0,6.259360104339696,,,194,29,0.0,16385,146059918933128,33,31.41539192199707,-606.2352197327505,0.7151701583885623,16,-2698.363115925134,340282346638528860000000000000000000000,1575420030,,,,0,,1,,27.50539207458496,-0.5529727912983312,1.0,-0.5529727912983312,1.0,C,665826412078000
Raw,1701102841999,16565000000,,,-1385138043434899850,0.0,6.259360104339696,,,194,32,0.0,16431,146059924611777,17,39.74714279174805,-5.0513566209386624,0.15,25,-107.06387387124275,0.0014672650722786784,1575420030,,,,0,,1,,35.83714294433594,-0.05820765897186883,1.0,-0.05820765897186883,1.0,C,665826412078000
Raw,1701102841999,16565000000,,,-1385138043434899850,0.0,6.259360104339696,,,194,6,0.0,81921,146059923054495,67,23.775697708129883,-18.37420165662644,1.0491170569653376,16,-394.81885631741403,340282346638528860000000000000000000000,1176450050,,,,0,,1,,20.015697479248047,2.2409949884661438,7.671281903963041,2.2409949884661438,1.0,Q,665826412078000
Raw,1701102841999,16565000000,,,-1385138043434899850,0.0,6.259360104339696,,,194,11,0.0,81921,146059920777348,7,33.218177795410156,-359.77693315656916,0.6276873489261914,25,-7023.945036919122,0.0038610317278653383,1176450050,,,,0,,1,,29.458179473876953,0.0,7.671281903963041,0.0,1.0,Q,665826412078000
Raw,1701102841999,16565000000,,,-1385138043434899850,0.0,6.259360104339696,,,194,24,0.0,81921,146059926776461,7,35.87051773071289,673.0572839913725,0.5058960869646527,25,13063.068339531983,0.003017606446519494,1176450050,,,,0,,1,,32.11051940917969,2.6484485142856093,7.671281903963041,2.6484485142856093,1.0,Q,665826412078000
Raw,1701102841999,16565000000,,,-1385138043434899850,0.0,6.259360104339696,,,194,25,0.0,81921,146059930675195,14,31.1079044342041,-262.6339738129615,0.775915680112576,16,-5135.019561521622,340282346638528860000000000000000000000,1176450050,,,,0,,1,,27.347904205322266,0.1455191536427875,7.671281903963041,0.1455191536427875,1.0,Q,665826412078000
Raw,1701102841999,16565000000,,,-1385138043434899850,0.0,6.259360104339696,,,194,32,0.0,81921,146059924611724,21,29.927263259887695,-4.652297918434272,299.79327522205335,16,-133.24846217495107,340282346638528860000000000000000000000,1176450050,,,,0,,1,,26.16726303100586,9.196810540047126,7.671281903963041,9.196810540047126,1.0,Q,665826412078000
Raw,1701102841999,16565000000,,,-1385138043434899850,0.0,6.259360104339696,,,194,12,0.0,32995,70441933317856,42,37.014366149902344,-193.42032653890556,0.15,16,-3138.8865286706327,340282346638528860000000000000000000000,1601437440,,,,0,,3,,33.104366302490234,54.016709327697754,2.0000000474974513,54.016709327697754,2.0000000474974513,C,665826412078000
Raw,1701102841999,16565000000,,,-1385138043434899850,0.0,6.259360104339696,,,194,11,0.0,32995,70441931604543,33,44.98527908325195,475.4640037231836,0.15,25,7667.007737131907,0.0008321744971908629,1602000000,,,,0,,3,,41.075279235839844,54.016709327697754,2.0000000474974513,54.016709327697754,2.0000000474974513,C,665826412078000
Raw,1701102841999,16565000000,,,-1385138043434899850,0.0,6.259360104339696,,,194,21,0.0,32995,70441932179872,33,44.027809143066406,-45.258754364235045,0.15,25,-760.2420251209434,0.0008802369702607393,1604249980,,,,0,,3,,40.1178092956543,54.016709327697754,2.0000000474974513,54.016709327697754,2.0000000474974513,C,665826412078000
Raw,1701102841999,16565000000,,,-1385138043434899850,0.0,6.259360104339696,,,194,10,0.0,81955,146045867333514,14,32.890907287597656,261.71826341233486,0.6467314540466949,16,3886.543136614262,340282346638528860000000000000000000000,1561097980,,,,1,,5,,28.980905532836914,15.425030142068863,4.8356409757302465,15.425030142068863,1.5000000237487257,I,665826412078000
Raw,1701102841999,16565000000,,,-1385138043434899850,0.0,6.259360104339696,,,194,19,0.0,16384,146045913896744,1000000000,23.58870506286621,590.1695677068542,299792458,16,1369.4604609108803,340282346638528860000000000000000000000,1561097980,,,,0,,5,,19.6787052154541,15.425030142068863,4.8356409757302465,15.425030142068863,1.5000000237487257,I,665826412078000
Raw,1701102841999,16565000000,,,-1385138043434899850,0.0,6.259360104339696,,,194,22,0.0,81955,146045914681304,9,38.83539962768555,157.72561645151188,0.15,17,1423.6306170071432,0.09766434950792198,1561097980,,,,0,,5,,34.92539978027344,15.425030142068863,4.8356409757302465,15.425030142068863,1.5000000237487257,I,665826412078000
Raw,1701102841999,16565000000,,,-1385138043434899850,0.0,6.259360104339696,,,194,27,0.0,81955,146045922509015,7,40.72123336791992,-375.60622334647974,0.15,17,781278.2731224942,0.09734338431657259,1561097980,,,,0,,5,,36.81123352050781,15.425030142068863,4.8356409757302465,15.425030142068863,1.5000000237487257,I,665826412078000
Raw,1701102841999,16565000000,,,-1385138043434899850,0.0,6.259360104339696,,,194,28,0.0,81955,146045923712805,7,41.2695198059082,149.34733065924854,0.15,16,264167.48140808515,340282346638528860000000000000000000000,1561097980,,,,0,,5,,37.359519958496094,15.425030142068863,4.8356409757302465,15.425030142068863,1.5000000237487257,I,665826412078000
Raw,1701102841999,16565000000,,,-1385138043434899850,0.0,6.259360104339696,,,194,36,0.0,81955,146045916940846,11,36.34122848510742,-409.6134939702008,0.15,17,780815.6821516069,0.09821138941255365,1561097980,,,,0,,5,,32.43122863769531,15.425030142068863,4.8356409757302465,15.425030142068863,1.5000000237487257,I,665826412078000
Raw,1701102841999,16565000000,,,-1385138043434899850,0.0,6.259360104339696,,,194,37,0.0,81955,146045922467127,7,41.168148040771484,491.03723241723833,0.15,17,268846.77323905344,0.0972770012732685,1561097980,,,,0,,5,,37.258148193359375,15.425030142068863,4.8356409757302465,15.425030142068863,1.5000000237487257,I,665826412078000
Raw,1701102841999,16565000000,,,-1385138043434899850,0.0,6.259360104339696,,,194,46,0.0,81955,146045927173395,9,38.83378982543945,-58.38372943827258,0.15,16,785617.2709768596,340282346638528860000000000000000000000,1561097980,,,,0,,5,,34.923789978027344,15.425030142068863,4.8356409757302465,15.425030142068863,1.5000000237487257,I,665826412078000
Raw,1701102841999,16565000000,,,-1385138043434899850,0.0,6.259360104339696,,,194,22,0.0,81959,146045914681366,6,36.381412506103516,157.73769868234922,0.15,25,2097.735558224541,0.0026825114618986845,1176450050,,,,0,,5,,32.62141418457031,35.12051118152577,8.171281927711767,35.12051118152577,1.5000000237487257,Q,665826412078000
Raw,1701102841999,16565000000,,,-1385138043434899850,0.0,6.259360104339696,,,194,27,0.0,81959,146045922509071,27,27.659217834472656,-375.59231770421843,1.3442436381588445,16,-6972.3213403818645,340282346638528860000000000000000000000,1176450050,,,,0,,5,,23.89921760559082,27.67254668456183,8.171281927711767,27.67254668456183,1.5000000237487257,Q,665826412078000
Raw,1701102841999,16565000000,,,-1385138043434899850,0.0,6.259360104339696,,,194,28,0.0,81959,146045923712851,31,27.531373977661133,149.32979523536756,0.8839444860705825,16,2572.1499923587426,340282346638528860000000000000000000000,1176450050,,,,0,,5,,23.771373748779297,27.78896118237433,8.171281927711767,27.78896118237433,1.5000000237487257,Q,665826412078000
Raw,1701102841999,16565000000,,,-1385138043434899850,0.0,6.259360104339696,,,194,36,0.0,81959,146045916940868,7,36.93245315551758,-409.535342897394,0.15,25,-7592.359207998702,0.0025176166091114283,1176450050,,,,0,,5,,33.172454833984375,-0.045144423887897744,8.171281927711767,-0.045144423887897744,1.5000000237487257,Q,665826412078000
Raw,1701102841999,16565000000,,,-1385138043434899850,0.0,6.259360104339696,,,194,37,0.0,81959,146045922467171,33,27.17108917236328,490.8313062149275,0.8999220354789057,25,9025.92932612967,0.00774565152823925,1176450050,,,,0,,5,,23.411088943481445,9.277065645104923,8.171281927711767,9.277065645104923,1.5000000237487257,Q,665826412078000
Raw,1701102841999,16565000000,,,-1385138043434899850,0.0,6.259360104339696,,,194,46,0.0,81959,146045927173478,9,38.066062927246094,-58.73453164264774,0.15,25,-1059.512447000751,0.0023436101619154215,1176450050,,,,0,,5,,34.30606460571289,52.81723841416391,8.171281927711767,52.81723841416391,1.5000000237487257,Q,665826412078000
Raw,1701102841999,16565000000,,,-1385138043434899850,0.0,6.259360104339696,,,194,3,0.0,85026,146059912787109,21,37.27138137817383,-110.05258441610584,0.15,25,-1320.09356420393,0.0019511767895892262,1575420030,,,,0,,6,,33.36138153076172,-4.569301381707191,1.5000000237487257,-4.569301381707191,1.5000000237487257,C,665826412078000
Raw,1701102841999,16565000000,,,-1385138043434899850,0.0,6.259360104339696,,,194,5,0.0,85026,146059921573119,43,28.388681411743164,406.9718309300308,0.9230455177490788,16,5980.930061898012,340282346638528860000000000000000000000,1575420030,,,,0,,6,,24.478681564331055,-4.569301381707191,1.5000000237487257,-4.569301381707191,1.5000000237487257,C,665826412078000
Raw,1701102841999,16565000000,,,-1385138043434899850,0.0,6.259360104339696,,,194,9,0.0,85026,146059909081871,25,34.80936813354492,720.9153241213985,0.5600555068021227,25,5241.969705647734,0.0024424241855740547,1575420030,,,,0,,6,,30.89936637878418,-4.569301381707191,1.5000000237487257,-4.569301381707191,1.5000000237487257,C,665826412078000
Raw,1701102841999,16565000000,,,-1385138043434899850,0.0,6.259360104339696,,,194,12,0.0,85026,146059909342127,39,29.4920711517334,-443.74547230233884,0.8028777656159285,16,-5230.060053809117,340282346638528860000000000000000000000,1575420030,,,,0,,6,,25.58207130432129,-4.569301381707191,1.5000000237487257,-4.569301381707191,1.5000000237487257,C,665826412078000
