# 
# Header Description:
# 
# Version: v3.0.6.4 Platform: 14 Manufacturer: Google Model: Pixel 7 Pro
# 
# Raw,utcTimeMillis,TimeNanos,LeapSecond,TimeUncertaintyNanos,FullBiasNanos,BiasNanos,BiasUncertaintyNanos,DriftNanosPerSecond,DriftUncertaintyNanosPerSecond,HardwareClockDiscontinuityCount,Svid,TimeOffsetNanos,State,ReceivedSvTimeNanos,ReceivedSvTimeUncertaintyNanos,Cn0DbHz,PseudorangeRateMetersPerSecond,PseudorangeRateUncertaintyMetersPerSecond,AccumulatedDeltaRangeState,AccumulatedDeltaRangeMeters,AccumulatedDeltaRangeUncertaintyMeters,CarrierFrequencyHz,CarrierCycles,CarrierPhase,CarrierPhaseUncertainty,MultipathIndicator,SnrInDb,ConstellationType,AgcDb,BasebandCn0DbHz,FullInterSignalBiasNanos,FullInterSignalBiasUncertaintyNanos,SatelliteInterSignalBiasNanos,SatelliteInterSignalBiasUncertaintyNanos,CodeType,ChipsetElapsedRealtimeNanos
# 
# UncalAccel,utcTimeMillis,elapsedRealtimeNanos,UncalAccelXMps2,UncalAccelYMps2,UncalAccelZMps2,BiasXMps2,BiasYMps2,BiasZMps2
# 
# Accel,utcTimeMillis,elapsedRealtimeNanos,AccelXMps2,AccelYMps2,AccelZMps2
# 
# UncalGyro,utcTimeMillis,elapsedRealtimeNanos,UncalGyroXRadPerSec,UncalGyroYRadPerSec,UncalGyroZRadPerSec,DriftXRadPerSec,DriftYRadPerSec,DriftZRadPerSec
# 
# Gyro,utcTimeMillis,elapsedRealtimeNanos,GyroXRadPerSec,GyroYRadPerSec,GyroZRadPerSec
# 
# UncalMag,utcTimeMillis,elapsedRealtimeNanos,UncalMagXMicroT,UncalMagYMicroT,UncalMagZMicroT,BiasXMicroT,BiasYMicroT,BiasZMicroT
# 
# Mag,utcTimeMillis,elapsedRealtimeNanos,MagXMicroT,MagYMicroT,MagZMicroT
# 
# OrientationDeg,utcTimeMillis,elapsedRealtimeNanos,yawDeg,rollDeg,pitchDeg
# 
# Fix,Provider,LatitudeDegrees,LongitudeDegrees,AltitudeMeters,SpeedMps,AccuracyMeters,BearingDegrees,UnixTimeMillis,SpeedAccuracyMps,BearingAccuracyDegrees,elapsedRealtimeNanos,VerticalAccuracyMeters,MockLocation,NumberOfUsedSignals,VerticalSpeedAccuracyMps,SolutionType
# 
# Nav,Svid,Type,Status,MessageId,Sub-messageId,Data(Bytes)
# 
# Status,UnixTimeMillis,SignalCount,SignalIndex,ConstellationType,Svid,CarrierFrequencyHz,Cn0DbHz,AzimuthDegrees,ElevationDegrees,UsedInFix,HasAlmanacData,HasEphemerisData,BasebandCn0DbHz
# 
# Agc,utcTimeMillis,TimeNanos,LeapSecond,TimeUncertaintyNanos,FullBiasNanos,BiasNanos,BiasUncertaintyNanos,DriftNanosPerSecond,DriftUncertaintyNanosPerSecond,HardwareClockDiscontinuityCount,AgcDb,CarrierFrequencyHz,ConstellationType
# 
Raw,1701102716000,46390000000,,,-1385137887610406183,0.0,6.766185701437846,379.0,1.0,192,6,0.0,16419,145933923502757,40,29.155813217163086,-32.54902076908964,0.8140054214014345,16,-2515.3644378975173,340282346638528860000000000000000000000,1575420030,,,,0,,1,,25.245813369750977,0.43655744850213174,1.0,0.43655744850213174,1.0,C,665700410396000
Raw,1701102716000,46390000000,,,-1385137887610406183,0.0,6.766185701437846,379.0,1.0,192,11,0.0,16419,145933921083596,51,26.078264236450195,-367.317029095567,0.9519640827048961,21,-26464.052223994964,0.10182068325866735,1575420030,,,,1,,1,,22.168264389038086,-0.20372681261465636,1.0,-0.20372681261465636,1.0,C,665700410396000
Raw,1701102716000,46390000000,,,-1385137887610406183,0.0,6.766185701437846,379.0,1.0,192,12,0.0,16431,145933933150151,15,41.26826095581055,176.77106356874094,0.15,17,12527.613817155274,0.09637838826802349,1575420030,,,,0,,1,,37.35826110839844,-0.5238689680255122,1.0,-0.5238689680255122,1.0,C,665700410396000
Raw,1701102716000,46390000000,,,-1385137887610406183,0.0,6.766185701437846,379.0,1.0,192,19,0.0,16419,145933921520081,43,28.245365142822266,735.9807242132633,0.8545905709865247,16,52643.31679359828,340282346638528860000000000000000000000,1575420030,,,,1,,1,,24.335365295410156,0.0,1.0,0.0,1.0,C,665700410396000
Raw,1701102716000,46390000000,,,-1385137887610406183,0.0,6.766185701437846,379.0,1.0,192,24,0.0,16423,145933927516740,26,34.4511833190918,665.9016722444085,0.5766004758577123,16,47600.26068063862,340282346638528860000000000000000000000,1575420030,,,,0,,1,,30.541183471679688,0.23283063588747532,1.0,0.23283063588747532,1.0,C,665700410396000
Raw,1701102716000,46390000000,,,-1385137887610406183,0.0,6.766185701437846,379.0,1.0,192,25,0.0,16431,145933931021799,13,42.52534866333008,-272.2204997301867,0.15,25,-19635.486154709488,0.0010656099766492844,1575420030,,,,0,,1,,38.61534881591797,-1.6007106776444318,1.0,-1.6007106776444318,1.0,C,665700410396000
Raw,1701102716000,46390000000,,,-1385137887610406183,0.0,6.766185701437846,379.0,1.0,192,32,0.0,16431,145933925065157,11,46.89746856689453,-21.491851763979867,0.15,25,-1741.7945655499757,0.0006790017941966653,1575420030,,,,0,,1,,42.98746871948242,-0.05820765897186883,1.0,-0.05820765897186883,1.0,C,665700410396000
Raw,1701102716000,46390000000,,,-1385137887610406183,0.0,6.766185701437846,379.0,1.0,192,6,0.0,81921,145933923502731,103,23.347551345825195,-31.749795684243864,1.0684510626681787,16,-2502.4219465133397,340282346638528860000000000000000000000,1176450050,,,,0,,1,,19.58755111694336,2.2409949884661438,3.961725922710461,2.2409949884661438,1.0,Q,665700410396000
Raw,1701102716000,46390000000,,,-1385137887610406183,0.0,6.766185701437846,379.0,1.0,192,11,0.0,16384,145933921083531,1000000000,19.697673797607422,-366.05049092872287,299792458,16,-26708.946385715524,340282346638528860000000000000000000000,1176450050,,,,0,,1,,15.937673568725586,0.0,3.961725922710461,0.0,1.0,Q,665700410396000
Raw,1701102716000,46390000000,,,-1385137887610406183,0.0,6.766185701437846,379.0,1.0,192,24,0.0,81921,145933927516682,7,38.726478576660156,666.1244351802416,0.15,25,48182.35311061039,0.002172023756429553,1176450050,,,,0,,1,,34.96648025512695,2.6484485142856093,3.961725922710461,2.6484485142856093,1.0,Q,665700410396000
Raw,1701102716000,46390000000,,,-1385137887610406183,0.0,6.766185701437846,379.0,1.0,192,25,0.0,81921,145933931021738,19,30.75298500061035,-273.2714493182958,0.7367894859954749,25,-19847.42927564363,0.005128178745508194,1176450050,,,,0,,1,,26.992984771728516,0.1455191536427875,3.961725922710461,0.1455191536427875,1.0,Q,665700410396000
Raw,1701102716000,46390000000,,,-1385137887610406183,0.0,6.766185701437846,379.0,1.0,192,32,0.0,81921,145933925065073,20,29.671030044555664,-22.21473001606101,0.7843723230700004,25,-1761.9297489843511,0.005808457266539335,1176450050,,,,0,,1,,25.911029815673828,9.196810540047126,3.961725922710461,9.196810540047126,1.0,Q,665700410396000
Raw,1701102716000,46390000000,,,-1385137887610406183,0.0,6.766185701437846,379.0,1.0,192,12,0.0,32995,70315933693738,33,45.02680587768555,-201.47007449151727,0.15,25,-14472.627555118335,0.00082849629689008,1601437440,,,,0,,3,,41.11680603027344,54.016709327697754,2.0000000474974513,54.016709327697754,2.0000000474974513,C,665700410396000
Raw,1701102716000,46390000000,,,-1385137887610406183,0.0,6.766185701437846,379.0,1.0,192,11,0.0,32803,70315932261780,61,32.54730987548828,468.7628133690382,0.663069132536636,16,33072.01314255397,340282346638528860000000000000000000000,1602000000,,,,0,,3,,28.63730812072754,54.016709327697754,2.0000000474974513,54.016709327697754,2.0000000474974513,C,665700410396000
Raw,1701102716000,46390000000,,,-1385137887610406183,0.0,6.766185701437846,379.0,1.0,192,21,0.0,32803,70315932615475,52,34.610267639160156,-65.10903313040788,0.5703638522851233,16,-4782.553503339519,340282346638528860000000000000000000000,1604249980,,,,0,,3,,30.700267791748047,54.016709327697754,2.0000000474974513,54.016709327697754,2.0000000474974513,C,665700410396000
Raw,1701102716000,46390000000,,,-1385137887610406183,0.0,6.766185701437846,379.0,1.0,192,19,0.0,81967,145919914602395,6,46.94472885131836,582.344372019043,0.15,25,22725.989562344403,0.0006815129308961332,1561097980,,,,0,,5,,43.03472900390625,15.425030142068863,4.8356409757302465,15.425030142068863,1.5000000237487257,I,665700410396000
Raw,1701102716000,46390000000,,,-1385137887610406183,0.0,6.766185701437846,379.0,1.0,192,22,0.0,81967,145919915203646,7,43.308502197265625,143.7454188165616,0.15,25,5570.764961627805,0.0010358227882534266,1561097980,,,,0,,5,,39.398502349853516,15.425030142068863,4.8356409757302465,15.425030142068863,1.5000000237487257,I,665700410396000
Raw,1701102716000,46390000000,,,-1385137887610406183,0.0,6.766185701437846,379.0,1.0,192,27,0.0,81955,145919922808340,13,34.53507995605469,-383.9554368033291,0.5719809050856157,16,-20988.313677051985,340282346638528860000000000000000000000,1561097980,,,,0,,5,,30.625080108642578,15.425030142068863,4.8356409757302465,15.425030142068863,1.5000000237487257,I,665700410396000
Raw,1701102716000,46390000000,,,-1385137887610406183,0.0,6.766185701437846,379.0,1.0,192,28,0.0,81955,145919924231799,12,34.998905181884766,137.48684028404966,0.5513791917616411,16,8205.115468441447,340282346638528860000000000000000000000,1561097980,,,,0,,5,,31.088905334472656,15.425030142068863,4.8356409757302465,15.425030142068863,1.5000000237487257,I,665700410396000
Raw,1701102716000,46390000000,,,-1385137887610406183,0.0,6.766185701437846,379.0,1.0,192,36,0.0,81967,145919917227174,6,47.96022033691406,-412.21446255728256,0.15,17,-15271.251464491226,0.09662605987899904,1561097980,,,,0,,5,,44.05022048950195,15.425030142068863,4.8356409757302465,15.425030142068863,1.5000000237487257,I,665700410396000
Raw,1701102716000,46390000000,,,-1385137887610406183,0.0,6.766185701437846,379.0,1.0,192,37,0.0,81955,145919923131291,16,31.907426834106445,485.99698241681904,0.6902015637553047,16,28612.971561224287,340282346638528860000000000000000000000,1561097980,,,,0,,5,,27.997426986694336,15.425030142068863,4.8356409757302465,15.425030142068863,1.5000000237487257,I,665700410396000
Raw,1701102716000,46390000000,,,-1385137887610406183,0.0,6.766185701437846,379.0,1.0,192,46,0.0,81967,145919927606205,6,42.95021438598633,-65.72077062192167,0.15,16,-4583.8533057147115,340282346638528860000000000000000000000,1561097980,,,,0,,5,,39.04021453857422,15.425030142068863,4.8356409757302465,15.425030142068863,1.5000000237487257,I,665700410396000
Raw,1701102716000,46390000000,,,-1385137887610406183,0.0,6.766185701437846,379.0,1.0,192,19,0.0,81959,145919914602344,7,35.583953857421875,582.093252479383,0.520190282543779,25,39840.48819126832,0.002940455451607704,1176450050,,,,0,,5,,31.823955535888672,28.226578344322526,4.461725946459186,28.226578344322526,1.5000000237487257,Q,665700410396000
Raw,1701102716000,46390000000,,,-1385137887610406183,0.0,6.766185701437846,379.0,1.0,192,22,0.0,81959,145919915203600,10,34.00238800048828,143.70419608539726,0.5914196877153453,25,9668.339011422402,0.003527709050104022,1176450050,,,,0,,5,,30.242389678955078,35.12051118152577,4.461725946459186,35.12051118152577,1.5000000237487257,Q,665700410396000
Raw,1701102716000,46390000000,,,-1385137887610406183,0.0,6.766185701437846,379.0,1.0,192,27,0.0,81959,145919922808390,20,29.761655807495117,-383.59596913438304,0.7834885756231316,16,-28008.17210251614,340282346638528860000000000000000000000,1176450050,,,,0,,5,,26.00165557861328,27.572546684561832,4.461725946459186,27.572546684561832,1.5000000237487257,Q,665700410396000
Raw,1701102716000,46390000000,,,-1385137887610406183,0.0,6.766185701437846,379.0,1.0,192,28,0.0,81959,145919924231868,37,27.0286922454834,137.79710140639094,0.9066428695763911,16,9763.878124144185,340282346638528860000000000000000000000,1176450050,,,,0,,5,,23.268692016601562,27.78896118237433,4.461725946459186,27.78896118237433,1.5000000237487257,Q,665700410396000
Raw,1701102716000,46390000000,,,-1385137887610406183,0.0,6.766185701437846,379.0,1.0,192,36,0.0,81959,145919917227102,8,36.62757873535156,-412.3508264658303,0.15,25,-26588.44117532754,0.002765728859230876,1176450050,,,,0,,5,,32.86758041381836,-0.045144423887897744,4.461725946459186,-0.045144423887897744,1.5000000237487257,Q,665700410396000
Raw,1701102716000,46390000000,,,-1385137887610406183,0.0,6.766185701437846,379.0,1.0,192,37,0.0,81959,145919923131353,14,32.65950012207031,487.11181956968016,0.6532338808397831,25,35208.55855685877,0.004117534961551428,1176450050,,,,0,,5,,28.899499893188477,9.277065645104923,4.461725946459186,9.277065645104923,1.5000000237487257,Q,665700410396000
Raw,1701102716000,46390000000,,,-1385137887610406183,0.0,6.766185701437846,379.0,1.0,192,46,0.0,81959,145919927606178,9,36.87045669555664,-65.5777308122025,0.15,25,-4857.099289183088,0.0026894633192569017,1176450050,,,,0,,5,,33.11045837402344,52.81723841416391,4.461725946459186,52.81723841416391,1.5000000237487257,Q,665700410396000
Raw,1701102716000,46390000000,,,-1385137887610406183,0.0,6.766185701437846,379.0,1.0,192,3,0.0,85026,145933913197419,13,42.73221969604492,-120.91242238840914,0.15,25,-4512.723152414966,0.0010405303910374641,1575420030,,,,0,,6,,38.82221984863281,-4.569301381707191,1.5000000237487257,-4.569301381707191,1.5000000237487257,C,665700410396000
Raw,1701102716000,46390000000,,,-1385137887610406183,0.0,6.766185701437846,379.0,1.0,192,5,0.0,85026,145933922200772,17,39.88115692138672,395.5752027881074,0.15,25,15001.666806653138,0.001444800291210413,1575420030,,,,0,,6,,35.97115707397461,-4.569301381707191,1.5000000237487257,-4.569301381707191,1.5000000237487257,C,665700410396000
Raw,1701102716000,46390000000,,,-1385137887610406183,0.0,6.766185701437846,379.0,1.0,192,9,0.0,85026,145933909843538,64,23.38522720336914,719.7771064033627,1.073923094257133,16,18426.872178771064,340282346638528860000000000000000000000,1575420030,,,,0,,6,,19.47522735595703,-4.569301381707191,1.5000000237487257,-4.569301381707191,1.5000000237487257,C,665700410396000
Raw,1701102716000,46390000000,,,-1385137887610406183,0.0,6.766185701437846,379.0,1.0,192,24,0.0,85026,145933922113539,13,42.4304313659668,47.555481642858865,0.15,25,1846.8958035590085,0.0010773185640573502,1575420030,,,,0,,6,,38.52043151855469,-4.569301381707191,1.5000000237487257,-4.569301381707191,1.5000000237487257,C,665700410396000
Raw,1701102716000,46390000000,,,-1385137887610406183,0.0,6.766185701437846,379.0,1.0,192,25,0.0,85026,145933912678076,12,43.30400466918945,-312.0332055857207,0.15,25,-11544.661392618222,0.0009742389665916562,1575420030,,,,0,,6,,39.394004821777344,-4.569301381707191,1.5000000237487257,-4.569301381707191,1.5000000237487257,C,665700410396000
Raw,1701102716000,46390000000,,,-1385137887610406183,0.0,6.766185701437846,379.0,1.0,192,26,0.0,85026,145933908179679,31,32.390506744384766,389.83950026234015,0.6686666434821245,25,10715.769981811232,0.0032267416827380657,1575420030,,,,0,,6,,28.480504989624023,-4.569301381707191,1.5000000237487257,-4.569301381707191,1.5000000237487257,C,665700410396000
Raw,1701102716000,46390000000,,,-1385137887610406183,0.0,6.766185701437846,379.0,1.0,192,31,0.0,85026,145933917559227,40,29.179065704345703,459.11147966073486,0.8133296301931932,16,17894.597384030614,340282346638528860000000000000000000000,1575420030,,,,0,,6,,25.269065856933594,-4.569301381707191,1.5000000237487257,-4.569301381707191,1.5000000237487257,C,665700410396000
Raw,1701102716000,46390000000,,,-1385137887610406183,0.0,6.766185701437846,379.0,1.0,192,33,0.0,85026,145933913382845,51,26.214797973632812,-59.130936173850415,0.946597626850405,16,-2305.8981239702116,340282346638528860000000000000000000000,1575420030,,,,0,,6,,22.304798126220703,-4.569301381707191,1.5000000237487257,-4.569301381707191,1.5000000237487257,C,665700410396000
Raw,1701102716000,46390000000,,,-1385137887610406183,0.0,6.766185701437846,379.0,1.0,192,3,0.0,84003,145933913197344,12,31.619754791259766,-121.26250886119732,0.6982032192316092,25,-4496.628081667793,0.004641139414161444,1176450050,,,,0,,6,,27.85975456237793,-7.339869625866411,4.461725946459186,-7.339869625866411,1.5000000237487257,Q,665700410396000
Raw,1701102716000,46390000000,,,-1385137887610406183,0.0,6.766185701437846,379.0,1.0,192,5,0.0,84003,145933922200704,60,24.59844398498535,395.3463050101002,1.0155630782205245,16,15016.631152684778,340282346638528860000000000000000000000,1176450050,,,,0,,6,,20.838443756103516,-8.07868782430887,4.461725946459186,-8.07868782430887,1.5000000237487257,Q,665700410396000
Raw,1701102716000,46390000000,,,-1385137887610406183,0.0,6.766185701437846,379.0,1.0,192,9,0.0,84003,145933909843452,112,21.700321197509766,719.740092855579,1.1436655856955937,16,25786.301968815016,340282346638528860000000000000000000000,1176450050,,,,0,,6,,17.94032096862793,-6.785755977034567,4.461725946459186,-6.785755977034567,1.5000000237487257,Q,665700410396000
Raw,1701102716000,46390000000,,,-1385137887610406183,0.0,6.766185701437846,379.0,1.0,192,24,0.0,84003,145933922113472,23,29.68776512145996,47.95817438729,0.7866863354794651,16,1851.2208400805303,340282346638528860000000000000000000000,1176450050,,,,0,,6,,25.927764892578125,-2.906960435211658,4.461725946459186,-2.906960435211658,1.5000000237487257,Q,665700410396000
Raw,1701102716000,46390000000,,,-1385137887610406183,0.0,6.766185701437846,379.0,1.0,192,25,0.0,84003,145933912678005,37,26.493005752563477,-311.79619618306106,0.9286539457314222,25,-11540.461855328515,0.008374559693038464,1176450050,,,,0,,6,,22.73300552368164,-8.07868782430887,4.461725946459186,-8.07868782430887,1.5000000237487257,Q,665700410396000
Raw,1701102716000,46390000000,,,-1385137887610406183,0.0,6.766185701437846,379.0,1.0,192,26,0.0,16384,145933908179587,1000000000,17.237815856933594,389.79001253546903,299792458,16,12524.201736921914,340282346638528860000000000000000000000,1176450050,,,,1,,6,,13.477815628051758,-1.0599149391055107,4.461725946459186,-1.0599149391055107,1.5000000237487257,Q,665700410396000
Raw,1701102716000,46390000000,,,-1385137887610406183,0.0,6.766185701437846,379.0,1.0,192,31,0.0,84003,145933917559175,19,29.814868927001953,459.0417469546892,0.7801514904123015,16,17912.71250360866,340282346638528860000000000000000000000,1176450050,,,,0,,6,,26.054868698120117,-9.741028770804402,4.461725946459186,-9.741028770804402,1.5000000237487257,Q,665700410396000
Raw,1701102716000,46390000000,,,-1385137887610406183,0.0,6.766185701437846,379.0,1.0,192,33,0.0,84003,145933913382792,97,22.165451049804688,-58.45985260491628,1.1233858583915426,16,-2224.435024237178,340282346638528860000000000000000000000,1176450050,,,,0,,6,,18.40545082092285,-1.6140285879373555,4.461725946459186,-1.6140285879373555,1.5000000237487257,Q,665700410396000
Raw,1701102716000,46390000000,,,-1385137887610406183,0.0,6.766185701437846,379.0,1.0,192,6,0.0,16384,145933872093283,1000000000,25.26309585571289,134.2507365990512,299792458,16,3.1344735235526917,340282346638528860000000000000000000000,1176450050,,,,0,,7,,21.35309600830078,-32.30030813900531,1.5000000237487257,-32.30030813900531,1.5000000237487257,C,665700410396000
Agc,1701102716000,46390000000,,,-1385137887610406183,0.0,6.766185701437846,379.0,1.0,192,34.68907165527344,1575420000,1
Agc,1701102716000,46390000000,,,-1385137887610406183,0.0,6.766185701437846,379.0,1.0,192,25.718292236328125,1176450000,1
Agc,1701102716000,46390000000,,,-1385137887610406183,0.0,6.766185701437846,379.0,1.0,192,50.92256164550781,1602000000,3
Agc,1701102716000,46390000000,,,-1385137887610406183,0.0,6.766185701437846,379.0,1.0,192,34.68907165527344,1575420000,6
Agc,1701102716000,46390000000,,,-1385137887610406183,0.0,6.766185701437846,379.0,1.0,192,25.718292236328125,1176450000,6
Agc,1701102716000,46390000000,,,-1385137887610406183,0.0,6.766185701437846,379.0,1.0,192,50.234073638916016,1561096000,5
Agc,1701102716000,46390000000,,,-1385137887610406183,0.0,6.766185701437846,379.0,1.0,192,34.68907165527344,1575420000,5
Agc,1701102716000,46390000000,,,-1385137887610406183,0.0,6.766185701437846,379.0,1.0,192,25.718292236328125,1176450000,5
Raw,1701102717000,47390000000,,,-1385137887610405805,0.0,6.754468063949839,378.0,1.0,192,6,0.0,16419,145934923502855,39,29.401382446289062,-31.924219045959944,0.8029623726515545,16,-2548.457522961763,340282346638528860000000000000000000000,1575420030,,,,0,,1,,25.491382598876953,0.43655744850213174,1.0,0.43655744850213174,1.0,C,665701410400000
Raw,1701102717000,47390000000,,,-1385137887610405805,0.0,6.754468063949839,378.0,1.0,192,11,0.0,16419,145934921084772,56,24.963489532470703,-366.8990418487713,1.0020945168372037,16,-26830.371487724486,340282346638528860000000000000000000000,1575420030,,,,1,,1,,21.053489685058594,-0.20372681261465636,1.0,-0.20372681261465636,1.0,C,665701410400000
Raw,1701102717000,47390000000,,,-1385137887610405805,0.0,6.754468063949839,378.0,1.0,192,12,0.0,16431,145934933149542,15,41.20539093017578,176.91634003966942,0.15,21,12704.67125325674,0.09638733466909057,1575420030,,,,0,,1,,37.29539108276367,-0.5238689680255122,1.0,-0.5238689680255122,1.0,C,665701410400000
Raw,1701102717000,47390000000,,,-1385137887610405805,0.0,6.754468063949839,378.0,1.0,192,19,0.0,16419,145934921517629,38,29.66888427734375,735.8759547419122,0.7905761289647266,16,53379.24527774428,340282346638528860000000000000000000000,1575420030,,,,0,,1,,25.75888442993164,0.0,1.0,0.0,1.0,C,665701410400000
Raw,1701102717000,47390000000,,,-1385137887610405805,0.0,6.754468063949839,378.0,1.0,192,24,0.0,16423,145934927514520,27,34.15837097167969,666.3906873305978,0.5897676205161595,16,48265.002966836735,340282346638528860000000000000000000000,1575420030,,,,0,,1,,30.248369216918945,0.23283063588747532,1.0,0.23283063588747532,1.0,C,665701410400000
Raw,1701102717000,47390000000,,,-1385137887610405805,0.0,6.754468063949839,378.0,1.0,192,25,0.0,16431,145934931022723,11,44.47537612915039,-272.2139218160778,0.15,25,-19907.597040371194,0.0008513279026374221,1575420030,,,,0,,1,,40.56537628173828,-1.6007106776444318,1.0,-1.6007106776444318,1.0,C,665701410400000
Raw,1701102717000,47390000000,,,-1385137887610405805,0.0,6.754468063949839,378.0,1.0,192,32,0.0,16431,145934925065204,13,45.59195327758789,-21.847510718409524,0.15,25,-1763.1622226617724,0.0007891269051469862,1575420030,,,,0,,1,,41.68195343017578,-0.05820765897186883,1.0,-0.05820765897186883,1.0,C,665701410400000
Raw,1701102717000,47390000000,,,-1385137887610405805,0.0,6.754468063949839,378.0,1.0,192,6,0.0,81921,145934923502835,87,24.084716796875,-31.375919656802765,1.0353014802580844,16,-2532.895757123427,340282346638528860000000000000000000000,1176450050,,,,1,,1,,20.324716567993164,2.2409949884661438,3.841436627880794,2.2409949884661438,1.0,Q,665701410400000
Raw,1701102717000,47390000000,,,-1385137887610405805,0.0,6.754468063949839,378.0,1.0,192,11,0.0,16384,145934921084756,1000000000,20.423704147338867,-366.2285035991415,299792458,16,-27074.980707703573,340282346638528860000000000000000000000,1176450050,,,,0,,1,,16.66370391845703,0.0,3.841436627880794,0.0,1.0,Q,665701410400000
Raw,1701102717000,47390000000,,,-1385137887610405805,0.0,6.754468063949839,378.0,1.0,192,24,0.0,81921,145934927514462,7,40.6009635925293,666.089193920197,0.15,25,48848.36068758363,0.0017504121642559767,1176450050,,,,0,,1,,36.840965270996094,2.6484485142856093,3.841436627880794,2.6484485142856093,1.0,Q,665701410400000
Raw,1701102717000,47390000000,,,-1385137887610405805,0.0,6.754468063949839,378.0,1.0,192,25,0.0,81921,145934931022642,26,28.579368591308594,-272.0813240189758,0.8345347095052982,16,-20118.275078588544,340282346638528860000000000000000000000,1176450050,,,,0,,1,,24.819368362426758,0.1455191536427875,3.841436627880794,0.1455191536427875,1.0,Q,665701410400000
Raw,1701102717000,47390000000,,,-1385137887610405805,0.0,6.754468063949839,378.0,1.0,192,32,0.0,81921,145934925065146,18,29.50261116027832,-20.6754363401254,0.7919459508208329,25,-1783.5474634454474,0.005922181531786919,1176450050,,,,0,,1,,25.742610931396484,9.196810540047126,3.841436627880794,9.196810540047126,1.0,Q,665701410400000
Raw,1701102717000,47390000000,,,-1385137887610405805,0.0,6.754468063949839,378.0,1.0,192,12,0.0,32995,70316933694433,33,44.36531448364258,-201.08611857755955,0.15,25,-14674.034787463015,0.0008940569823607802,1601437440,,,,0,,3,,40.45531463623047,54.016709327697754,2.0000000474974513,54.016709327697754,2.0000000474974513,C,665701410400000
Raw,1701102717000,47390000000,,,-1385137887610405805,0.0,6.754468063949839,378.0,1.0,192,11,0.0,32803,70316932260196,49,35.327056884765625,468.6876615524054,0.5380667306918867,16,33541.17314350979,340282346638528860000000000000000000000,1602000000,,,,0,,3,,31.417057037353516,54.016709327697754,2.0000000474974513,54.016709327697754,2.0000000474974513,C,665701410400000
Raw,1701102717000,47390000000,,,-1385137887610405805,0.0,6.754468063949839,378.0,1.0,192,21,0.0,32803,70316932615681,52,34.54658889770508,-65.02974881592169,0.5732274443060184,16,-4847.416476007546,340282346638528860000000000000000000000,1604249980,,,,0,,3,,30.63658905029297,54.016709327697754,2.0000000474974513,54.016709327697754,2.0000000474974513,C,665701410400000
Raw,1701102717000,47390000000,,,-1385137887610405805,0.0,6.754468063949839,378.0,1.0,192,19,0.0,81967,145920914600453,6,45.79488754272461,582.278592877954,0.15,25,23308.364715718188,0.0007779760053381324,1561097980,,,,0,,5,,41.8848876953125,15.425030142068863,4.8356409757302465,15.425030142068863,1.5000000237487257,I,665701410400000
Raw,1701102717000,47390000000,,,-1385137887610405805,0.0,6.754468063949839,378.0,1.0,192,22,0.0,81967,145920915203156,6,43.87528610229492,143.6300837836884,0.15,25,5714.60593465288,0.0009205926908180118,1561097980,,,,0,,5,,39.96528625488281,15.425030142068863,4.8356409757302465,15.425030142068863,1.5000000237487257,I,665701410400000
Raw,1701102717000,47390000000,,,-1385137887610405805,0.0,6.754468063949839,378.0,1.0,192,27,0.0,81955,145920922809616,12,34.74120330810547,-383.94037235754604,0.562711941391965,16,-21372.37555847182,340282346638528860000000000000000000000,1561097980,,,,0,,5,,30.83120346069336,15.425030142068863,4.8356409757302465,15.425030142068863,1.5000000237487257,I,665701410400000
Raw,1701102717000,47390000000,,,-1385137887610405805,0.0,6.754468063949839,378.0,1.0,192,28,0.0,81955,145920924231342,12,34.676231384277344,137.4962555626641,0.5658894647897381,16,8342.817127370407,340282346638528860000000000000000000000,1561097980,,,,0,,5,,30.7662296295166,15.425030142068863,4.8356409757302465,15.425030142068863,1.5000000237487257,I,665701410400000
Raw,1701102717000,47390000000,,,-1385137887610405805,0.0,6.754468063949839,378.0,1.0,192,36,0.0,81967,145920917228556,6,47.240264892578125,-412.53776873985794,0.15,25,-15683.569758500977,0.0006587147945538163,1561097980,,,,0,,5,,43.330265045166016,15.425030142068863,4.8356409757302465,15.425030142068863,1.5000000237487257,I,665701410400000
Raw,1701102717000,47390000000,,,-1385137887610405805,0.0,6.754468063949839,378.0,1.0,192,37,0.0,81955,145920923129669,15,32.09723663330078,486.56694333725,0.6816658388479797,16,29099.419151418144,340282346638528860000000000000000000000,1561097980,,,,0,,5,,28.18723487854004,15.425030142068863,4.8356409757302465,15.425030142068863,1.5000000237487257,I,665701410400000
Raw,1701102717000,47390000000,,,-1385137887610405805,0.0,6.754468063949839,378.0,1.0,192,46,0.0,81967,145920927606419,6,43.61669921875,-66.14444537864966,0.15,25,-4649.464939066686,0.0009484115871600807,1561097980,,,,0,,5,,39.70669937133789,15.425030142068863,4.8356409757302465,15.425030142068863,1.5000000237487257,I,665701410400000
Raw,1701102717000,47390000000,,,-1385137887610405805,0.0,6.754468063949839,378.0,1.0,192,19,0.0,81959,145920914600401,6,35.28917694091797,582.5515933547017,0.5334457952901832,25,40422.900369138835,0.0030419600661844015,1176450050,,,,0,,5,,31.529176712036133,28.226578344322526,4.34143665162952,28.226578344322526,1.5000000237487257,Q,665701410400000
Raw,1701102717000,47390000000,,,-1385137887610405805,0.0,6.754468063949839,378.0,1.0,192,22,0.0,81959,145920915203121,8,34.93222427368164,143.67952038687474,0.5496059055129865,25,9812.184194846963,0.0031695752404630184,1176450050,,,,0,,5,,31.172225952148438,35.12051118152577,4.34143665162952,35.12051118152577,1.5000000237487257,Q,665701410400000
Raw,1701102717000,47390000000,,,-1385137887610405805,0.0,6.754468063949839,378.0,1.0,192,27,0.0,81959,145920922809676,10,35.926727294921875,-383.3297851489399,0.5062523884266417,25,-28391.71156160462,0.0029981413390487432,1176450050,,,,0,,5,,32.16672897338867,27.572546684561832,4.34143665162952,27.572546684561832,1.5000000237487257,Q,665701410400000
Raw,1701102717000,47390000000,,,-1385137887610405805,0.0,6.754468063949839,378.0,1.0,192,28,0.0,81959,145920924231413,29,28.201120376586914,138.00317245914198,0.8539200385948171,29,9901.796784026501,0.006879490800201893,1176450050,,,,0,,5,,24.441120147705078,27.78896118237433,4.34143665162952,27.78896118237433,1.5000000237487257,Q,665701410400000
Raw,1701102717000,47390000000,,,-1385137887610405805,0.0,6.754468063949839,378.0,1.0,192,36,0.0,81959,145920917228478,8,34.10984420776367,-412.4416221300071,0.5869516241132602,25,-27000.730132629582,0.0034843357279896736,1176450050,,,,0,,5,,30.34984588623047,-0.045144423887897744,4.34143665162952,-0.045144423887897744,1.5000000237487257,Q,665701410400000
Raw,1701102717000,47390000000,,,-1385137887610405805,0.0,6.754468063949839,378.0,1.0,192,37,0.0,81959,145920923129731,8,33.80217361450195,487.155615526312,0.6018487862767294,25,35695.559853977655,0.003609968814998865,1176450050,,,,0,,5,,30.04217529296875,9.277065645104923,4.34143665162952,9.277065645104923,1.5000000237487257,Q,665701410400000
Raw,1701102717000,47390000000,,,-1385137887610405805,0.0,6.754468063949839,378.0,1.0,192,46,0.0,81959,145920927606401,6,39.430110931396484,-65.8776606899103,0.15,25,-4922.812896530462,0.0020030089654028416,1176450050,,,,0,,5,,35.67011260986328,52.81723841416391,4.34143665162952,52.81723841416391,1.5000000237487257,Q,665701410400000
Raw,1701102717000,47390000000,,,-1385137887610405805,0.0,6.754468063949839,378.0,1.0,192,3,0.0,85026,145934913197818,11,44.49327850341797,-121.22546975157115,0.15,25,-4633.7364808883085,0.0008495753281749785,1575420030,,,,0,,6,,40.58327865600586,-4.569301381707191,1.5000000237487257,-4.569301381707191,1.5000000237487257,C,665701410400000
Raw,1701102717000,47390000000,,,-1385137887610405805,0.0,6.754468063949839,378.0,1.0,192,5,0.0,85026,145934922199449,19,38.49690246582031,396.4332967959822,0.15,25,15397.469070250194,0.0015975127462297678,1575420030,,,,0,,6,,34.5869026184082,-4.569301381707191,1.5000000237487257,-4.569301381707191,1.5000000237487257,C,665701410400000
Raw,1701102717000,47390000000,,,-1385137887610405805,0.0,6.754468063949839,378.0,1.0,192,9,0.0,85026,145934909841097,65,23.07366180419922,718.8398388489854,1.0879334468780302,25,19146.704509195068,0.004716027528047562,1575420030,,,,0,,6,,19.16366195678711,-4.569301381707191,1.5000000237487257,-4.569301381707191,1.5000000237487257,C,665701410400000
Raw,1701102717000,47390000000,,,-1385137887610405805,0.0,6.754468063949839,378.0,1.0,192,24,0.0,85026,145934922113373,15,41.3820686340332,47.810043510627736,0.15,16,1894.6028460496927,340282346638528860000000000000000000000,1575420030,,,,0,,6,,37.472068786621094,-4.569301381707191,1.5000000237487257,-4.569301381707191,1.5000000237487257,C,665701410400000
Raw,1701102717000,47390000000,,,-1385137887610405805,0.0,6.754468063949839,378.0,1.0,192,25,0.0,85026,145934912679122,17,39.42426300048828,-311.92141512832586,0.15,25,-11856.596777073473,0.0015228335978463292,1575420030,,,,0,,6,,35.51426315307617,-4.569301381707191,1.5000000237487257,-4.569301381707191,1.5000000237487257,C,665701410400000
Raw,1701102717000,47390000000,,,-1385137887610405805,0.0,6.754468063949839,378.0,1.0,192,26,0.0,85026,145934908178379,33,31.671493530273438,389.57290728741873,0.7009995782816292,25,11105.343091921432,0.0035052162129431963,1575420030,,,,0,,6,,27.761493682861328,-4.569301381707191,1.5000000237487257,-4.569301381707191,1.5000000237487257,C,665701410400000
Raw,1701102717000,47390000000,,,-1385137887610405805,0.0,6.754468063949839,378.0,1.0,192,31,0.0,85026,145934917557680,36,30.5303955078125,458.8742316808796,0.7525616087224907,16,18351.717181410477,340282346638528860000000000000000000000,1575420030,,,,0,,6,,26.62039566040039,-4.569301381707191,1.5000000237487257,-4.569301381707191,1.5000000237487257,C,665701410400000
Raw,1701102717000,47390000000,,,-1385137887610405805,0.0,6.754468063949839,378.0,1.0,192,33,0.0,85026,145934913383040,50,26.46270179748535,-58.606368825200775,0.9354497346063386,16,-2367.5175488356813,340282346638528860000000000000000000000,1575420030,,,,0,,6,,22.552701950073242,-4.569301381707191,1.5000000237487257,-4.569301381707191,1.5000000237487257,C,665701410400000
Raw,1701102717000,47390000000,,,-1385137887610405805,0.0,6.754468063949839,378.0,1.0,192,3,0.0,84003,145934913197748,14,30.512451171875,-120.98939761646591,0.7479974219422436,16,-4617.510419065839,340282346638528860000000000000000000000,1176450050,,,,0,,6,,26.752450942993164,-7.339869625866411,4.34143665162952,-7.339869625866411,1.5000000237487257,Q,665701410400000
Raw,1701102717000,47390000000,,,-1385137887610405805,0.0,6.754468063949839,378.0,1.0,192,5,0.0,84003,145934922199382,73,24.11580467224121,395.1576245307899,1.0372665468919777,16,15413.82677180834,340282346638528860000000000000000000000,1176450050,,,,0,,6,,20.355804443359375,-8.07868782430887,4.34143665162952,-8.07868782430887,1.5000000237487257,Q,665701410400000
Raw,1701102717000,47390000000,,,-1385137887610405805,0.0,6.754468063949839,378.0,1.0,192,9,0.0,84003,145934909841048,82,23.19190788269043,719.27704860126,1.0765901796146387,16,26502.665145597763,340282346638528860000000000000000000000,1176450050,,,,0,,6,,19.431907653808594,-6.785755977034567,4.34143665162952,-6.785755977034567,1.5000000237487257,Q,665701410400000
Raw,1701102717000,47390000000,,,-1385137887610405805,0.0,6.754468063949839,378.0,1.0,192,24,0.0,84003,145934922113316,9,36.33507537841797,47.803316485771546,0.15,25,1899.3639480951274,0.0028604520484805107,1176450050,,,,0,,6,,32.575077056884766,-2.906960435211658,4.34143665162952,-2.906960435211658,1.5000000237487257,Q,665701410400000
Raw,1701102717000,47390000000,,,-1385137887610405805,0.0,6.754468063949839,378.0,1.0,192,25,0.0,84003,145934912679043,12,31.15274429321289,-311.68246302564444,0.7191108758567144,25,-11852.435026596382,0.00489750737324357,1176450050,,,,0,,6,,27.392744064331055,-8.07868782430887,4.34143665162952,-8.07868782430887,1.5000000237487257,Q,665701410400000
Raw,1701102717000,47390000000,,,-1385137887610405805,0.0,6.754468063949839,378.0,1.0,192,26,0.0,16384,145934908178287,1000000000,17.676801681518555,389.29472627727955,299792458,16,12912.20603109664,340282346638528860000000000000000000000,1176450050,,,,1,,6,,13.916801452636719,-1.0599149391055107,4.34143665162952,-1.0599149391055107,1.5000000237487257,Q,665701410400000
Raw,1701102717000,47390000000,,,-1385137887610405805,0.0,6.754468063949839,378.0,1.0,192,31,0.0,84003,145934917557648,23,29.143117904663086,459.2644076431527,0.8103590645245791,25,18371.99989441876,0.006172433495521545,1176450050,,,,0,,6,,25.38311767578125,-9.741028770804402,4.34143665162952,-9.741028770804402,1.5000000237487257,Q,665701410400000
Raw,1701102717000,47390000000,,,-1385137887610405805,0.0,6.754468063949839,378.0,1.0,192,33,0.0,84003,145934913382988,51,25.926889419555664,-57.991559652292864,0.9542382878702189,16,-2284.3283342150003,340282346638528860000000000000000000000,1176450050,,,,0,,6,,22.166889190673828,-1.6140285879373555,4.34143665162952,-1.6140285879373555,1.5000000237487257,Q,665701410400000
Raw,1701102717000,47390000000,,,-1385137887610405805,0.0,6.754468063949839,378.0,1.0,192,6,0.0,16384,145934872092833,1000000000,21.332237243652344,134.0021306405597,299792458,16,3.134644122673403,340282346638528860000000000000000000000,1176450050,,,,0,,7,,17.422237396240234,-32.30030813900531,1.5000000237487257,-32.30030813900531,1.5000000237487257,C,665701410400000
Agc,1701102717000,47390000000,,,-1385137887610405805,0.0,6.754468063949839,378.0,1.0,192,35.00495910644531,1575420000,1
Agc,1701102717000,47390000000,,,-1385137887610405805,0.0,6.754468063949839,378.0,1.0,192,30.611833572387695,1176450000,1
Agc,1701102717000,47390000000,,,-1385137887610405805,0.0,6.754468063949839,378.0,1.0,192,50.67078399658203,1602000000,3
Agc,1701102717000,47390000000,,,-1385137887610405805,0.0,6.754468063949839,378.0,1.0,192,35.00495910644531,1575420000,6
Agc,1701102717000,47390000000,,,-1385137887610405805,0.0,6.754468063949839,378.0,1.0,192,30.611833572387695,1176450000,6
Agc,1701102717000,47390000000,,,-1385137887610405805,0.0,6.754468063949839,378.0,1.0,192,50.58506774902344,1561096000,5
Agc,1701102717000,47390000000,,,-1385137887610405805,0.0,6.754468063949839,378.0,1.0,192,35.00495910644531,1575420000,5
Agc,1701102717000,47390000000,,,-1385137887610405805,0.0,6.754468063949839,378.0,1.0,192,30.611833572387695,1176450000,5
Raw,1701102718000,48390000000,,,-1385137887610405427,0.0,6.624002580720066,377.0,1.0,192,6,0.0,16419,145935923502973,41,28.979108810424805,-30.993829757339668,0.8219516928858894,16,-2579.74946144289,340282346638528860000000000000000000000,1575420030,,,,0,,1,,25.069108963012695,0.43655744850213174,1.0,0.43655744850213174,1.0,C,665702410390000
Raw,1701102718000,48390000000,,,-1385137887610405427,0.0,6.624002580720066,377.0,1.0,192,11,0.0,16419,145935921086002,55,25.192752838134766,-366.6646227128074,0.9917850397101389,16,-27197.313054625913,340282346638528860000000000000000000000,1575420030,,,,1,,1,,21.282752990722656,-0.20372681261465636,1.0,-0.20372681261465636,1.0,C,665702410390000
Raw,1701102718000,48390000000,,,-1385137887610405427,0.0,6.624002580720066,377.0,1.0,192,12,0.0,16431,145935933148981,15,40.9354133605957,177.1037424268601,0.15,21,12881.701920942469,0.0964264975982604,1575420030,,,,0,,1,,37.025413513183594,-0.5238689680255122,1.0,-0.5238689680255122,1.0,C,665702410390000
Raw,1701102718000,48390000000,,,-1385137887610405427,0.0,6.624002580720066,377.0,1.0,192,19,0.0,16419,145935921515169,41,28.851783752441406,735.1974411974561,0.8273196797882321,21,54115.0753601944,0.099996373674914,1575420030,,,,0,,1,,24.941783905029297,0.0,1.0,0.0,1.0,C,665702410390000
Raw,1701102718000,48390000000,,,-1385137887610405427,0.0,6.624002580720066,377.0,1.0,192,24,0.0,16423,145935927512307,26,34.44892120361328,666.1105295379803,0.5767015250159186,16,48930.43780256178,340282346638528860000000000000000000000,1575420030,,,,0,,1,,30.53891944885254,0.23283063588747532,1.0,0.23283063588747532,1.0,C,665702410390000
Raw,1701102718000,48390000000,,,-1385137887610405427,0.0,6.624002580720066,377.0,1.0,192,25,0.0,16431,145935931023628,13,45.71615982055664,-272.15318687855415,0.15,25,-20179.692343459683,0.0007779228035360575,1575420030,,,,0,,1,,41.80615997314453,-1.6007106776444318,1.0,-1.6007106776444318,1.0,C,665702410390000
Raw,1701102718000,48390000000,,,-1385137887610405427,0.0,6.624002580720066,377.0,1.0,192,32,0.0,16431,145935925065275,13,42.34116744995117,-20.80778277911054,0.15,29,-1784.494512760372,0.0010884471703320742,1575420030,,,,0,,1,,38.43116760253906,-0.05820765897186883,1.0,-0.05820765897186883,1.0,C,665702410390000
Raw,1701102718000,48390000000,,,-1385137887610405427,0.0,6.624002580720066,377.0,1.0,192,6,0.0,81921,145935923502939,30,27.31300163269043,-30.576089608353712,0.8901291871508126,25,-2563.5257471728078,0.007620127405971289,1176450050,,,,0,,1,,23.553001403808594,2.2409949884661438,3.74558923213807,2.2409949884661438,1.0,Q,665702410390000
Raw,1701102718000,48390000000,,,-1385137887610405427,0.0,6.624002580720066,377.0,1.0,192,11,0.0,16384,145935921085971,1000000000,19.324539184570312,-366.4763853054319,299792458,16,-27441.21864957898,340282346638528860000000000000000000000,1176450050,,,,0,,1,,15.564538955688477,0.0,3.74558923213807,0.0,1.0,Q,665702410390000
Raw,1701102718000,48390000000,,,-1385137887610405427,0.0,6.624002580720066,377.0,1.0,192,24,0.0,81921,145935927512240,8,39.401947021484375,666.3777359971191,0.15,25,49514.41549605853,0.0020095144864171743,1176450050,,,,0,,1,,35.64194869995117,2.6484485142856093,3.74558923213807,2.6484485142856093,1.0,Q,665702410390000
Raw,1701102718000,48390000000,,,-1385137887610405427,0.0,6.624002580720066,377.0,1.0,192,25,0.0,81921,145935931023555,37,27.3120174407959,-271.789544108684,0.8915262350317583,16,-20389.614706616252,340282346638528860000000000000000000000,1176450050,,,,0,,1,,23.552017211914062,0.1455191536427875,3.74558923213807,0.1455191536427875,1.0,Q,665702410390000
Raw,1701102718000,48390000000,,,-1385137887610405427,0.0,6.624002580720066,377.0,1.0,192,32,0.0,81921,145935925065216,29,28.685819625854492,-20.96058295231643,0.8286761881847591,16,-1804.8074189635697,340282346638528860000000000000000000000,1176450050,,,,0,,1,,24.925819396972656,9.196810540047126,3.74558923213807,9.196810540047126,1.0,Q,665702410390000
Raw,1701102718000,48390000000,,,-1385137887610405427,0.0,6.624002580720066,377.0,1.0,192,12,0.0,32995,70317933695071,33,43.531002044677734,-201.7490223569282,0.15,25,-14875.536580298745,0.0009336882503703237,1601437440,,,,0,,3,,39.621002197265625,54.016709327697754,2.0000000474974513,54.016709327697754,2.0000000474974513,C,665702410390000
Raw,1701102718000,48390000000,,,-1385137887610405427,0.0,6.624002580720066,377.0,1.0,192,11,0.0,32803,70317932258675,40,37.79789733886719,469.6134433189345,0.15,17,34010.60124464739,0.0953741286616066,1602000000,,,,0,,3,,33.88789749145508,54.016709327697754,2.0000000474974513,54.016709327697754,2.0000000474974513,C,665702410390000
Raw,1701102718000,48390000000,,,-1385137887610405427,0.0,6.624002580720066,377.0,1.0,192,21,0.0,32803,70317932615876,47,35.77350616455078,-64.84719465817139,0.5180544707907822,16,-4912.140686736256,340282346638528860000000000000000000000,1604249980,,,,0,,3,,31.86350440979004,54.016709327697754,2.0000000474974513,54.016709327697754,2.0000000474974513,C,665702410390000
Raw,1701102718000,48390000000,,,-1385137887610405427,0.0,6.624002580720066,377.0,1.0,192,19,0.0,81967,145921914598510,6,44.07431411743164,582.4223526795672,0.15,25,23890.763666386953,0.0008997382828965783,1561097980,,,,0,,5,,40.16431427001953,15.425030142068863,4.8356409757302465,15.425030142068863,1.5000000237487257,I,665702410390000
Raw,1701102718000,48390000000,,,-1385137887610405427,0.0,6.624002580720066,377.0,1.0,192,22,0.0,81967,145921915202680,6,45.15467834472656,143.89463181121846,0.15,25,5858.478095095984,0.0007945074466988444,1561097980,,,,0,,5,,41.24467849731445,15.425030142068863,4.8356409757302465,15.425030142068863,1.5000000237487257,I,665702410390000
Raw,1701102718000,48390000000,,,-1385137887610405427,0.0,6.624002580720066,377.0,1.0,192,27,0.0,81955,145921922810894,11,36.286346435546875,-383.24590822343725,0.15,16,-21755.823672599396,340282346638528860000000000000000000000,1561097980,,,,0,,5,,32.376346588134766,15.425030142068863,4.8356409757302465,15.425030142068863,1.5000000237487257,I,665702410390000
Raw,1701102718000,48390000000,,,-1385137887610405427,0.0,6.624002580720066,377.0,1.0,192,28,0.0,81955,145921924230887,11,36.52946853637695,137.288420742788,0.15,16,8481.060298367993,340282346638528860000000000000000000000,1561097980,,,,0,,5,,32.619468688964844,15.425030142068863,4.8356409757302465,15.425030142068863,1.5000000237487257,I,665702410390000
Raw,1701102718000,48390000000,,,-1385137887610405427,0.0,6.624002580720066,377.0,1.0,192,36,0.0,81967,145921917229921,6,47.093467712402344,-412.25464577352295,0.15,25,-16095.896462957022,0.0006699419463984668,1561097980,,,,0,,5,,43.183467864990234,15.425030142068863,4.8356409757302465,15.425030142068863,1.5000000237487257,I,665702410390000
Raw,1701102718000,48390000000,,,-1385137887610405427,0.0,6.624002580720066,377.0,1.0,192,37,0.0,81955,145921923128064,16,31.548187255859375,486.8953278058473,0.7063556496376484,16,29587.47679191541,340282346638528860000000000000000000000,1561097980,,,,0,,5,,27.638187408447266,15.425030142068863,4.8356409757302465,15.425030142068863,1.5000000237487257,I,665702410390000
Raw,1701102718000,48390000000,,,-1385137887610405427,0.0,6.624002580720066,377.0,1.0,192,46,0.0,81967,145921927606642,6,43.550907135009766,-65.84370604259945,0.15,25,-4715.166317228223,0.0009556227596476674,1561097980,,,,0,,5,,39.640907287597656,15.425030142068863,4.8356409757302465,15.425030142068863,1.5000000237487257,I,665702410390000
Raw,1701102718000,48390000000,,,-1385137887610405427,0.0,6.624002580720066,377.0,1.0,192,19,0.0,81959,145921914598457,7,37.19404220581055,582.5665896355717,0.15,25,41005.27055071438,0.0025911133270710707,1176450050,,,,0,,5,,33.434043884277344,28.226578344322526,4.245589255886795,28.226578344322526,1.5000000237487257,Q,665702410390000
Raw,1701102718000,48390000000,,,-1385137887610405427,0.0,6.624002580720066,377.0,1.0,192,22,0.0,81959,145921915202639,10,32.870697021484375,143.87440387327217,0.6423103869569244,25,9956.071553865744,0.004018624313175678,1176450050,,,,0,,5,,29.110698699951172,35.12051118152577,4.245589255886795,35.12051118152577,1.5000000237487257,Q,665702410390000
Raw,1701102718000,48390000000,,,-1385137887610405427,0.0,6.624002580720066,377.0,1.0,192,27,0.0,81959,145921922810952,8,38.4146728515625,-383.18135605078305,0.15,25,-28775.16599621407,0.002251411322504282,1176450050,,,,0,,5,,34.6546745300293,27.572546684561832,4.245589255886795,27.572546684561832,1.5000000237487257,Q,665702410390000
Raw,1701102718000,48390000000,,,-1385137887610405427,0.0,6.624002580720066,377.0,1.0,192,28,0.0,81959,145921924230950,18,31.13251304626465,138.32187751008678,0.7220986158881857,25,10039.745875012522,0.00490892818197608,1176450050,,,,0,,5,,27.372512817382812,27.78896118237433,4.245589255886795,27.78896118237433,1.5000000237487257,Q,665702410390000
Raw,1701102718000,48390000000,,,-1385137887610405427,0.0,6.624002580720066,377.0,1.0,192,36,0.0,81959,145921917229850,11,34.276058197021484,-412.2324580943266,0.5794775144727824,25,-27413.089857997496,0.003418293548747897,1176450050,,,,0,,5,,30.51605987548828,-0.045144423887897744,4.245589255886795,-0.045144423887897744,1.5000000237487257,Q,665702410390000
Raw,1701102718000,48390000000,,,-1385137887610405427,0.0,6.624002580720066,377.0,1.0,192,37,0.0,81959,145921923128100,8,36.420127868652344,487.4117111046244,0.15,25,36182.525592404156,0.0028325796592980623,1176450050,,,,0,,5,,32.66012954711914,9.277065645104923,4.245589255886795,9.277065645104923,1.5000000237487257,Q,665702410390000
Raw,1701102718000,48390000000,,,-1385137887610405427,0.0,6.624002580720066,377.0,1.0,192,46,0.0,81959,145921927606624,9,36.931148529052734,-65.92520997706669,0.15,25,-4988.521565696465,0.0026707365177571774,1176450050,,,,0,,5,,33.17115020751953,52.81723841416391,4.245589255886795,52.81723841416391,1.5000000237487257,Q,665702410390000
Raw,1701102718000,48390000000,,,-1385137887610405427,0.0,6.624002580720066,377.0,1.0,192,3,0.0,85026,145935913198223,11,44.93008804321289,-120.93298263030653,0.15,25,-4754.705099574292,0.0008079068502411246,1575420030,,,,0,,6,,41.02008819580078,-4.569301381707191,1.5000000237487257,-4.569301381707191,1.5000000237487257,C,665702410390000
Raw,1701102718000,48390000000,,,-1385137887610405427,0.0,6.624002580720066,377.0,1.0,192,5,0.0,85026,145935922198148,17,39.567901611328125,395.7275854512209,0.15,16,15793.094528151567,340282346638528860000000000000000000000,1575420030,,,,0,,6,,35.657901763916016,-4.569301381707191,1.5000000237487257,-4.569301381707191,1.5000000237487257,C,665702410390000
Raw,1701102718000,48390000000,,,-1385137887610405427,0.0,6.624002580720066,377.0,1.0,192,9,0.0,85026,145935909838695,67,22.73131561279297,719.398041321916,1.1033279333240813,16,19864.34606487267,340282346638528860000000000000000000000,1575420030,,,,0,,6,,18.82131576538086,-4.569301381707191,1.5000000237487257,-4.569301381707191,1.5000000237487257,C,665702410390000
Raw,1701102718000,48390000000,,,-1385137887610405427,0.0,6.624002580720066,377.0,1.0,192,24,0.0,85026,145935922113208,15,41.0457649230957,47.98688033629634,0.15,25,1942.4697844173843,0.001263506361283362,1575420030,,,,0,,6,,37.135765075683594,-4.569301381707191,1.5000000237487257,-4.569301381707191,1.5000000237487257,C,665702410390000
Raw,1701102718000,48390000000,,,-1385137887610405427,0.0,6.624002580720066,377.0,1.0,192,25,0.0,85026,145935912680173,18,39.09952926635742,-311.8929562771293,0.15,16,-12168.533590678177,340282346638528860000000000000000000000,1575420030,,,,0,,6,,35.18952941894531,-4.569301381707191,1.5000000237487257,-4.569301381707191,1.5000000237487257,C,665702410390000
Raw,1701102718000,48390000000,,,-1385137887610405427,0.0,6.624002580720066,377.0,1.0,192,26,0.0,85026,145935908177081,37,30.15772247314453,389.5601263662227,0.7690718962158765,25,11495.104844732348,0.0041725668124854565,1575420030,,,,1,,6,,26.247722625732422,-4.569301381707191,1.5000000237487257,-4.569301381707191,1.5000000237487257,C,665702410390000
Raw,1701102718000,48390000000,,,-1385137887610405427,0.0,6.624002580720066,377.0,1.0,192,31,0.0,85026,145935917556178,26,34.50967025756836,459.41416595711394,0.5736177949408812,16,18809.061389870407,340282346638528860000000000000000000000,1575420030,,,,0,,6,,30.59967041015625,-4.569301381707191,1.5000000237487257,-4.569301381707191,1.5000000237487257,C,665702410390000
Raw,1701102718000,48390000000,,,-1385137887610405427,0.0,6.624002580720066,377.0,1.0,192,33,0.0,85026,145935913383212,48,26.915176391601562,-58.34743162207579,0.9151025080622208,16,-2426.5467682853355,340282346638528860000000000000000000000,1575420030,,,,0,,6,,23.005176544189453,-4.569301381707191,1.5000000237487257,-4.569301381707191,1.5000000237487257,C,665702410390000
Raw,1701102718000,48390000000,,,-1385137887610405427,0.0,6.624002580720066,377.0,1.0,192,3,0.0,84003,145935913198145,80,26.161165237426758,-120.61787327852488,0.9436699305216361,16,-4737.835820937756,340282346638528860000000000000000000000,1176450050,,,,0,,6,,22.401165008544922,-7.339869625866411,4.245589255886795,-7.339869625866411,1.5000000237487257,Q,665702410390000
Raw,1701102718000,48390000000,,,-1385137887610405427,0.0,6.624002580720066,377.0,1.0,192,5,0.0,84003,145935922198066,28,27.919055938720703,395.72008731078586,0.8662384502050888,16,15811.559138564287,340282346638528860000000000000000000000,1176450050,,,,0,,6,,24.159055709838867,-8.07868782430887,4.245589255886795,-8.07868782430887,1.5000000237487257,Q,665702410390000
Raw,1701102718000,48390000000,,,-1385137887610405427,0.0,6.624002580720066,377.0,1.0,192,9,0.0,84003,145935909838653,32,27.085302352905273,719.3550292617842,0.9015082010531743,16,27218.814211101897,340282346638528860000000000000000000000,1176450050,,,,0,,6,,23.325302124023438,-6.785755977034567,4.245589255886795,-6.785755977034567,1.5000000237487257,Q,665702410390000
Raw,1701102718000,48390000000,,,-1385137887610405427,0.0,6.624002580720066,377.0,1.0,192,24,0.0,84003,145935922113154,9,37.22414016723633,47.80399387459494,0.15,25,1947.1662821945083,0.002582150511443615,1176450050,,,,0,,6,,33.464141845703125,-2.906960435211658,4.245589255886795,-2.906960435211658,1.5000000237487257,Q,665702410390000
Raw,1701102718000,48390000000,,,-1385137887610405427,0.0,6.624002580720066,377.0,1.0,192,25,0.0,84003,145935912680087,19,29.48176383972168,-312.0791487371134,0.7942531733659122,25,-12164.566147836324,0.0059364126063883305,1176450050,,,,0,,6,,25.721763610839844,-8.07868782430887,4.245589255886795,-8.07868782430887,1.5000000237487257,Q,665702410390000
Raw,1701102718000,48390000000,,,-1385137887610405427,0.0,6.624002580720066,377.0,1.0,192,26,0.0,16384,145935908177012,1000000000,22.16743278503418,389.15290917568814,299792458,16,13302.481013381064,340282346638528860000000000000000000000,1176450050,,,,0,,6,,18.407432556152344,-1.0599149391055107,4.245589255886795,-1.0599149391055107,1.5000000237487257,Q,665702410390000
Raw,1701102718000,48390000000,,,-1385137887610405427,0.0,6.624002580720066,377.0,1.0,192,31,0.0,84003,145935917556113,11,32.07444763183594,459.54957555687906,0.6785400382406719,25,18831.153592164817,0.0044044312089681625,1176450050,,,,0,,6,,28.314449310302734,-9.741028770804402,4.245589255886795,-9.741028770804402,1.5000000237487257,Q,665702410390000
Raw,1701102718000,48390000000,,,-1385137887610405427,0.0,6.624002580720066,377.0,1.0,192,33,0.0,84003,145935913383189,28,28.442476272583008,-58.41350898465939,0.8411152197388185,16,-2342.626911903865,340282346638528860000000000000000000000,1176450050,,,,0,,6,,24.682476043701172,-1.6140285879373555,4.245589255886795,-1.6140285879373555,1.5000000237487257,Q,665702410390000
Raw,1701102718000,48390000000,,,-1385137887610405427,0.0,6.624002580720066,377.0,1.0,192,6,0.0,16384,145935872092387,1000000000,23.34962272644043,133.75351616145406,299792458,16,3.1264352907090482,340282346638528860000000000000000000000,1176450050,,,,0,,7,,19.43962287902832,-32.30030813900531,1.5000000237487257,-32.30030813900531,1.5000000237487257,C,665702410390000
Agc,1701102718000,48390000000,,,-1385137887610405427,0.0,6.624002580720066,377.0,1.0,192,35.384315490722656,1575420000,1
Agc,1701102718000,48390000000,,,-1385137887610405427,0.0,6.624002580720066,377.0,1.0,192,29.666786193847656,1176450000,1
Agc,1701102718000,48390000000,,,-1385137887610405427,0.0,6.624002580720066,377.0,1.0,192,50.67078399658203,1602000000,3
Agc,1701102718000,48390000000,,,-1385137887610405427,0.0,6.624002580720066,377.0,1.0,192,35.384315490722656,1575420000,6
Agc,1701102718000,48390000000,,,-1385137887610405427,0.0,6.624002580720066,377.0,1.0,192,29.666786193847656,1176450000,6
Agc,1701102718000,48390000000,,,-1385137887610405427,0.0,6.624002580720066,377.0,1.0,192,51.1671142578125,1561096000,5
Agc,1701102718000,48390000000,,,-1385137887610405427,0.0,6.624002580720066,377.0,1.0,192,35.384315490722656,1575420000,5
Agc,1701102718000,48390000000,,,-1385137887610405427,0.0,6.624002580720066,377.0,1.0,192,29.666786193847656,1176450000,5
Raw,1701102719000,49390000000,,,-1385137887610405048,0.0,6.4557200011261235,378.0,1.0,192,6,0.0,16419,145936923503075,35,30.726314544677734,-31.548091446234807,0.743381712073425,16,-2610.7686337491127,340282346638528860000000000000000000000,1575420030,,,,0,,1,,26.816314697265625,0.43655744850213174,1.0,0.43655744850213174,1.0,C,665703410499000
Raw,1701102719000,49390000000,,,-1385137887610405048,0.0,6.4557200011261235,378.0,1.0,192,11,0.0,16419,145936921087242,48,26.77536392211914,-367.1164538389303,0.920616876452637,16,-27565.171754671894,340282346638528860000000000000000000000,1575420030,,,,1,,1,,22.86536407470703,-0.20372681261465636,1.0,-0.20372681261465636,1.0,C,665703410499000
Raw,1701102719000,49390000000,,,-1385137887610405048,0.0,6.4557200011261235,378.0,1.0,192,12,0.0,16431,145936933148372,14,41.86936569213867,177.47046965904553,0.15,21,13058.736383736956,0.09629604119163727,1575420030,,,,0,,1,,37.95936584472656,-0.5238689680255122,1.0,-0.5238689680255122,1.0,C,665703410499000
Raw,1701102719000,49390000000,,,-1385137887610405048,0.0,6.4557200011261235,378.0,1.0,192,19,0.0,16419,145936921512740,36,30.58789825439453,735.8066991902579,0.7492481549024137,16,54850.34291299358,340282346638528860000000000000000000000,1575420030,,,,0,,1,,26.677898406982422,0.0,1.0,0.0,1.0,C,665703410499000
Raw,1701102719000,49390000000,,,-1385137887610405048,0.0,6.4557200011261235,378.0,1.0,192,24,0.0,16423,145936927510075,27,34.1658821105957,665.2125249735172,0.589428992671762,17,49596.261526774906,0.09777707598459696,1575420030,,,,0,,1,,30.255882263183594,0.23283063588747532,1.0,0.23283063588747532,1.0,C,665703410499000
Raw,1701102719000,49390000000,,,-1385137887610405048,0.0,6.4557200011261235,378.0,1.0,192,25,0.0,16431,145936931024528,13,45.5187873840332,-272.24998105507893,0.15,25,-20451.777518369054,0.0007958021597005427,1575420030,,,,0,,1,,41.608787536621094,-1.6007106776444318,1.0,-1.6007106776444318,1.0,C,665703410499000
Raw,1701102719000,49390000000,,,-1385137887610405048,0.0,6.4557200011261235,378.0,1.0,192,32,0.0,16431,145936925065353,13,42.39323043823242,-21.451385237319627,0.15,25,-1805.854980551811,0.0010819424642249942,1575420030,,,,0,,1,,38.48323059082031,-0.05820765897186883,1.0,-0.05820765897186883,1.0,C,665703410499000
Raw,1701102719000,49390000000,,,-1385137887610405048,0.0,6.4557200011261235,378.0,1.0,192,6,0.0,81921,145936923503047,24,28.39064598083496,-33.220249188463995,0.8416687933881226,25,-2594.864536489064,0.006731005851179361,1176450050,,,,0,,1,,24.630645751953125,2.2409949884661438,3.651152660944262,2.2409949884661438,1.0,Q,665703410499000
Raw,1701102719000,49390000000,,,-1385137887610405048,0.0,6.4557200011261235,378.0,1.0,192,11,0.0,16384,145936921087190,1000000000,20.54539680480957,-365.8862134882829,299792458,16,-27807.259986460052,340282346638528860000000000000000000000,1176450050,,,,0,,1,,16.785396575927734,0.0,3.651152660944262,0.0,1.0,Q,665703410499000
Raw,1701102719000,49390000000,,,-1385137887610405048,0.0,6.4557200011261235,378.0,1.0,192,24,0.0,81921,145936927510014,8,39.05293273925781,665.588727128616,0.15,16,50180.451804875265,340282346638528860000000000000000000000,1176450050,,,,0,,1,,35.29293441772461,2.6484485142856093,3.651152660944262,2.6484485142856093,1.0,Q,665703410499000
Raw,1701102719000,49390000000,,,-1385137887610405048,0.0,6.4557200011261235,378.0,1.0,192,25,0.0,81921,145936931024456,28,29.027589797973633,-271.9249877909057,0.8143790636445254,16,-20660.931299757547,340282346638528860000000000000000000000,1176450050,,,,0,,1,,25.267589569091797,0.1455191536427875,3.651152660944262,0.1455191536427875,1.0,Q,665703410499000
Raw,1701102719000,49390000000,,,-1385137887610405048,0.0,6.4557200011261235,378.0,1.0,192,32,0.0,81921,145936925065285,23,29.21363067626953,-19.307860730919373,0.8049410855815164,25,-1825.5158905447593,0.006122528575360775,1176450050,,,,0,,1,,25.453630447387695,9.196810540047126,3.651152660944262,9.196810540047126,1.0,Q,665703410499000
Raw,1701102719000,49390000000,,,-1385137887610405048,0.0,6.4557200011261235,378.0,1.0,192,12,0.0,32995,70318933695775,33,43.16492462158203,-201.48241234077852,0.15,25,-15076.874167506328,0.0009738808148540556,1601437440,,,,0,,3,,39.25492477416992,54.016709327697754,2.0000000474974513,54.016709327697754,2.0000000474974513,C,665703410499000
Raw,1701102719000,49390000000,,,-1385137887610405048,0.0,6.4557200011261235,378.0,1.0,192,11,0.0,32803,70318932257096,38,38.451026916503906,469.75140910293885,0.15,17,34480.05860532629,0.09524331160031646,1602000000,,,,0,,3,,34.5410270690918,54.016709327697754,2.0000000474974513,54.016709327697754,2.0000000474974513,C,665703410499000
Raw,1701102719000,49390000000,,,-1385137887610405048,0.0,6.4557200011261235,378.0,1.0,192,21,0.0,32803,70318932616068,50,35.11004638671875,-64.59141008227476,0.547889567587682,16,-4977.304317691365,340282346638528860000000000000000000000,1604249980,,,,0,,3,,31.200044631958008,54.016709327697754,2.0000000474974513,54.016709327697754,2.0000000474974513,C,665703410499000
Raw,1701102719000,49390000000,,,-1385137887610405048,0.0,6.4557200011261235,378.0,1.0,192,19,0.0,81967,145922914596564,6,43.69369888305664,582.1401499395583,0.15,25,24473.130703364714,0.0009400410926900804,1561097980,,,,0,,5,,39.78369903564453,15.425030142068863,4.8356409757302465,15.425030142068863,1.5000000237487257,I,665703410499000
Raw,1701102719000,49390000000,,,-1385137887610405048,0.0,6.4557200011261235,378.0,1.0,192,22,0.0,81967,145922915202200,6,46.54989242553711,143.84725719665175,0.15,25,6002.367916842371,0.0007132075261324644,1561097980,,,,0,,5,,42.639892578125,15.425030142068863,4.8356409757302465,15.425030142068863,1.5000000237487257,I,665703410499000
Raw,1701102719000,49390000000,,,-1385137887610405048,0.0,6.4557200011261235,378.0,1.0,192,27,0.0,81955,145922922812163,12,34.88144302368164,-383.34031662800544,0.5564059879786172,16,-22139.5506764638,340282346638528860000000000000000000000,1561097980,,,,0,,5,,30.97144317626953,15.425030142068863,4.8356409757302465,15.425030142068863,1.5000000237487257,I,665703410499000
Raw,1701102719000,49390000000,,,-1385137887610405048,0.0,6.4557200011261235,378.0,1.0,192,28,0.0,81955,145922924230428,12,34.73841094970703,137.2004454018885,0.5630931057397182,16,8618.750202125004,340282346638528860000000000000000000000,1561097980,,,,0,,5,,30.828411102294922,15.425030142068863,4.8356409757302465,15.425030142068863,1.5000000237487257,I,665703410499000
